{"lakes": [{"name": "Airplane", "url": "https://wdfw.wa.gov/fishing/locations/high-lakes/airplane", "elevation": 5305.0, "county": "Chelan", "lat": 48.002594, "lon": -121.006674, "acres": "9.40"}, {"name": "Arrowhead", "url": "https://wdfw.wa.gov/fishing/locations/high-lakes/arrowhead", "elevation": 4411.0, "county": "Skagit", "lat": 48.432548, "lon": -121.290053, "acres": "10.50"}, {"name": "Bagley - Upper", "url": "https://wdfw.wa.gov/fishing/locations/high-lakes/bagley-upper", "elevation": 4172.0, "county": "Whatcom", "lat": 48.860064, "lon": -121.684465, "acres": "3.80"}, {"name": "Baker (Thetis)", "url": "https://wdfw.wa.gov/fishing/locations/high-lakes/baker-thetis", "elevation": 4434.0, "county": "Kittitas", "lat": 47.351427, "lon": -121.301709, "acres": "4.70"}, {"name": "Bannock - Middle", "url": "https://wdfw.wa.gov/fishing/locations/high-lakes/bannock-middle", "elevation": 5929.0, "county": "Chelan", "lat": 48.260666, "lon": -120.972715, "acres": "6.90"}, {"name": "Bannock - Upper", "url": "https://wdfw.wa.gov/fishing/locations/high-lakes/bannock-upper", "elevation": 5934.0, "county": "Chelan", "lat": 48.257043, "lon": -120.968671, "acres": "11.80"}, {"name": "Bath Pot 1", "url": "https://wdfw.wa.gov/fishing/locations/high-lakes/bath-pot-1", "elevation": 5634.0, "county": "Snohomish", "lat": 48.248745, "lon": -121.079558, "acres": "0.90"}, {"name": "Battalion", "url": "https://wdfw.wa.gov/fishing/locations/high-lakes/battalion", "elevation": 5350.0, "county": "Chelan", "lat": 48.345756, "lon": -120.787952, "acres": "6.40"}, {"name": "Bear", "url": "https://wdfw.wa.gov/fishing/locations/high-lakes/bear", "elevation": 2780.0, "county": "Snohomish", "lat": 48.058358, "lon": -121.742891, "acres": "18.90"}, {"name": "Bearpaw Mtn", "url": "https://wdfw.wa.gov/fishing/locations/high-lakes/bearpaw-mtn", "elevation": 4425.0, "county": "Whatcom", "lat": 48.951348, "lon": -121.841096, "acres": "5.90"}, {"name": "Bench", "url": "https://wdfw.wa.gov/fishing/locations/high-lakes/bench", "elevation": 4185.0, "county": "King", "lat": 47.656379, "lon": -121.501307, "acres": "2.90"}, {"name": "Berdeen", "url": "https://wdfw.wa.gov/fishing/locations/high-lakes/berdeen", "elevation": 5018.0, "county": "Whatcom", "lat": 48.71593, "lon": -121.464573, "acres": "125.60"}, {"name": "Berdeen - Lower", "url": "https://wdfw.wa.gov/fishing/locations/high-lakes/berdeen-lower", "elevation": 4473.0, "county": "Whatcom", "lat": 48.706932, "lon": -121.477572, "acres": "7.30"}, {"name": "Berdeen - Upper", "url": "https://wdfw.wa.gov/fishing/locations/high-lakes/berdeen-upper", "elevation": 5067.0, "county": "Whatcom", "lat": 48.725722, "lon": -121.470262, "acres": "9.20"}, {"name": "Bertha", "url": "https://wdfw.wa.gov/fishing/locations/high-lakes/bertha", "elevation": 4319.0, "county": "King", "lat": 47.755337, "lon": -121.246329, "acres": "2.30"}, {"name": "Bertha Lake Pot", "url": "https://wdfw.wa.gov/fishing/locations/high-lakes/bertha-lake-pot", "elevation": 4318.0, "county": "King", "lat": 47.755928, "lon": -121.247532, "acres": "0.20"}, {"name": "Blanca", "url": "https://wdfw.wa.gov/fishing/locations/high-lakes/blanca", "elevation": 3976.0, "county": "Snohomish", "lat": 47.940573, "lon": -121.34106, "acres": "160.10"}, {"name": "Blue", "url": "https://wdfw.wa.gov/fishing/locations/high-lakes/blue", "elevation": 6259.0, "county": "Chelan", "lat": 48.5059, "lon": -120.670502, "acres": "14.40"}, {"name": "Blue (Whatcom)", "url": "https://wdfw.wa.gov/fishing/locations/high-lakes/blue-whatcom", "elevation": 3984.0, "county": "Whatcom", "lat": 48.646984, "lon": -121.792541, "acres": "12.20"}, {"name": "Bonnie", "url": "https://wdfw.wa.gov/fishing/locations/high-lakes/bonnie", "elevation": 4874.0, "county": "King", "lat": 47.565648, "lon": -121.27247, "acres": "7.90"}, {"name": "Box Mtn - Lower", "url": "https://wdfw.wa.gov/fishing/locations/high-lakes/box-mtn-lower", "elevation": 5064.0, "county": "Snohomish", "lat": 48.224075, "lon": -121.215524, "acres": "23.30"}, {"name": "Box Mtn - Upper", "url": "https://wdfw.wa.gov/fishing/locations/high-lakes/box-mtn-upper", "elevation": 5229.0, "county": "Snohomish", "lat": 48.222515, "lon": -121.220456, "acres": "4.40"}, {"name": "Buckhorn", "url": "https://wdfw.wa.gov/fishing/locations/high-lakes/buckhorn", "elevation": 5113.0, "county": "Jefferson", "lat": 47.837982, "lon": -123.113284, "acres": "1.20"}, {"name": "Campbell", "url": "https://wdfw.wa.gov/fishing/locations/high-lakes/campbell", "elevation": 5591.0, "county": "Pierce", "lat": 46.916324, "lon": -121.487371, "acres": "0.40"}, {"name": "Cedar", "url": "https://wdfw.wa.gov/fishing/locations/high-lakes/cedar", "elevation": 4206.0, "county": "Pierce", "lat": 47.074207, "lon": -121.838999, "acres": "34.40"}, {"name": "Chain - Lower", "url": "https://wdfw.wa.gov/fishing/locations/high-lakes/chain-lower", "elevation": 5632.0, "county": "Chelan", "lat": 47.691094, "lon": -121.019667, "acres": "3.90"}, {"name": "Chain - Middle", "url": "https://wdfw.wa.gov/fishing/locations/high-lakes/chain-middle", "elevation": 5684.0, "county": "Chelan", "lat": 47.687869, "lon": -121.016262, "acres": "7.40"}, {"name": "Chain - Upper", "url": "https://wdfw.wa.gov/fishing/locations/high-lakes/chain-upper", "elevation": 5710.0, "county": "Chelan", "lat": 47.685949, "lon": -121.012644, "acres": "4.60"}, {"name": "Chambers Lake", "url": "https://wdfw.wa.gov/fishing/locations/high-lakes/chambers-lake", "elevation": 4442.0, "county": "Lewis", "lat": 46.466595, "lon": -121.534791, "acres": "10.80"}, {"name": "Charlia Lakes 1", "url": "https://wdfw.wa.gov/fishing/locations/high-lakes/charlia-lakes-1", "elevation": 5504.0, "county": "Jefferson", "lat": 47.800254, "lon": -123.125579, "acres": "7.70"}, {"name": "Chiwaukum", "url": "https://wdfw.wa.gov/fishing/locations/high-lakes/chiwaukum", "elevation": 5214.0, "county": "Chelan", "lat": 47.72505, "lon": -120.887102, "acres": "68.50"}, {"name": "Christine", "url": "https://wdfw.wa.gov/fishing/locations/high-lakes/christine", "elevation": 4806.0, "county": "Pierce", "lat": 46.777571, "lon": -121.936279, "acres": "2.60"}, {"name": "Constance", "url": "https://wdfw.wa.gov/fishing/locations/high-lakes/constance", "elevation": 4669.0, "county": "Jefferson", "lat": 47.750726, "lon": -123.14226, "acres": "10.60"}, {"name": "Cooney", "url": "https://wdfw.wa.gov/fishing/locations/high-lakes/cooney", "elevation": 7246.0, "county": "Okanogan", "lat": 48.17797, "lon": -120.348647, "acres": "7.90"}, {"name": "Coplay", "url": "https://wdfw.wa.gov/fishing/locations/high-lakes/coplay", "elevation": 3893.0, "county": "Pierce", "lat": 47.024651, "lon": -121.832592, "acres": "18.50"}, {"name": "Cornwell", "url": "https://wdfw.wa.gov/fishing/locations/high-lakes/cornwell", "elevation": 6954.0, "county": "Okanogan", "lat": 48.935531, "lon": -120.201391, "acres": "6.40"}, {"name": "Cougar - Little", "url": "https://wdfw.wa.gov/fishing/locations/high-lakes/cougar-little", "elevation": 5024.0, "county": "Yakima", "lat": 46.813758, "lon": -121.447586, "acres": "12.50"}, {"name": "Coundly", "url": "https://wdfw.wa.gov/fishing/locations/high-lakes/coundly", "elevation": 4126.0, "county": "Pierce", "lat": 47.05026, "lon": -121.838885, "acres": "13.30"}, {"name": "Cup", "url": "https://wdfw.wa.gov/fishing/locations/high-lakes/cup", "elevation": 4715.0, "county": "Snohomish", "lat": 47.826317, "lon": -121.141114, "acres": "10.60"}, {"name": "Cutthroat", "url": "https://wdfw.wa.gov/fishing/locations/high-lakes/cutthroat", "elevation": 4940.0, "county": "Okanogan", "lat": 48.540542, "lon": -120.680343, "acres": "8.80"}, {"name": "D (Dee)", "url": "https://wdfw.wa.gov/fishing/locations/high-lakes/d-dee", "elevation": 5633.0, "county": "Chelan", "lat": 47.976458, "lon": -120.852153, "acres": "7.40"}, {"name": "Dee Dee - Lower", "url": "https://wdfw.wa.gov/fishing/locations/high-lakes/dee-dee-lower", "elevation": 6273.0, "county": "Chelan", "lat": 48.405536, "lon": -120.649542, "acres": "0.80"}, {"name": "Dee Dee - Tamarack", "url": "https://wdfw.wa.gov/fishing/locations/high-lakes/dee-dee-tamarack", "elevation": 6308.0, "county": "Chelan", "lat": 48.403549, "lon": -120.649778, "acres": "12.30"}, {"name": "Deer 1", "url": "https://wdfw.wa.gov/fishing/locations/high-lakes/deer-1-clallam", "elevation": 3525.0, "county": "Clallam", "lat": 47.926653, "lon": -123.823782, "acres": "8.50"}, {"name": "Delta", "url": "https://wdfw.wa.gov/fishing/locations/high-lakes/delta", "elevation": 3235.0, "county": "King", "lat": 47.591733, "lon": -121.310016, "acres": "45.60"}, {"name": "Dewey", "url": "https://wdfw.wa.gov/fishing/locations/high-lakes/dewey", "elevation": 5116.0, "county": "Yakima", "lat": 46.855944, "lon": -121.482124, "acres": "50.60"}, {"name": "Dewey - Upper", "url": "https://wdfw.wa.gov/fishing/locations/high-lakes/dewey-upper", "elevation": 5134.0, "county": "Yakima", "lat": 46.854937, "lon": -121.49011, "acres": "7.60"}, {"name": "Doelle - Lower", "url": "https://wdfw.wa.gov/fishing/locations/high-lakes/doelle-lower", "elevation": 5640.0, "county": "Chelan", "lat": 47.692801, "lon": -121.002441, "acres": "2.90"}, {"name": "Doelle - Upper", "url": "https://wdfw.wa.gov/fishing/locations/high-lakes/doelle-upper", "elevation": 5787.0, "county": "Chelan", "lat": 47.692659, "lon": -121.006683, "acres": "8.60"}, {"name": "Dole - Lower", "url": "https://wdfw.wa.gov/fishing/locations/high-lakes/dole-lower", "elevation": 6146.0, "county": "Chelan", "lat": 48.175026, "lon": -120.733327, "acres": "5.00"}, {"name": "Dole - Middle", "url": "https://wdfw.wa.gov/fishing/locations/high-lakes/dole-middle", "elevation": 6149.0, "county": "Chelan", "lat": 48.172195, "lon": -120.730024, "acres": "6.10"}, {"name": "Doubtful", "url": "https://wdfw.wa.gov/fishing/locations/high-lakes/doubtful", "elevation": 5390.0, "county": "Chelan", "lat": 48.473985, "lon": -121.047633, "acres": "29.90"}, {"name": "Dougs", "url": "https://wdfw.wa.gov/fishing/locations/high-lakes/dougs", "elevation": 3949.0, "county": "Whatcom", "lat": 48.721943, "lon": -121.365115, "acres": "5.80"}, {"name": "Dutton - Lower", "url": "https://wdfw.wa.gov/fishing/locations/high-lakes/dutton-lower", "elevation": 6832.0, "county": "Okanogan", "lat": 48.862734, "lon": -120.192607, "acres": "2.60"}, {"name": "Eagle", "url": "https://wdfw.wa.gov/fishing/locations/high-lakes/eagle", "elevation": 3892.0, "county": "Snohomish", "lat": 47.795729, "lon": -121.413636, "acres": "18.60"}, {"name": "Eagle - Lower", "url": "https://wdfw.wa.gov/fishing/locations/high-lakes/eagle-lower", "elevation": 6507.0, "county": "Okanogan", "lat": 48.208538, "lon": -120.333846, "acres": "7.90"}, {"name": "Eagle - Middle", "url": "https://wdfw.wa.gov/fishing/locations/high-lakes/eagle-middle", "elevation": 7027.0, "county": "Okanogan", "lat": 48.211659, "lon": -120.340711, "acres": "2.10"}, {"name": "Earle", "url": "https://wdfw.wa.gov/fishing/locations/high-lakes/earle", "elevation": 6694.0, "county": "Chelan", "lat": 47.505274, "lon": -120.772158, "acres": "14.00"}, {"name": "East Boardman", "url": "https://wdfw.wa.gov/fishing/locations/high-lakes/east-boardman", "elevation": 3365.0, "county": "Snohomish", "lat": 48.010446, "lon": -121.663193, "acres": "21.90"}, {"name": "EB Pot", "url": "https://wdfw.wa.gov/fishing/locations/high-lakes/eb-pot", "elevation": 4026.0, "county": "Pierce", "lat": 47.02511, "lon": -121.927362, "acres": "2.40"}, {"name": "Echo", "url": "https://wdfw.wa.gov/fishing/locations/high-lakes/echo", "elevation": 3823.0, "county": "Pierce", "lat": 47.041233, "lon": -121.424106, "acres": "51.20"}, {"name": "Embro", "url": "https://wdfw.wa.gov/fishing/locations/high-lakes/embro", "elevation": 4156.0, "county": "King", "lat": 47.736266, "lon": -121.173946, "acres": "9.40"}, {"name": "Emerald", "url": "https://wdfw.wa.gov/fishing/locations/high-lakes/emerald", "elevation": 4705.0, "county": "King", "lat": 47.580307, "lon": -121.255475, "acres": "2.60"}, {"name": "Enchantment No 3 (Leprechaun Lake)", "url": "https://wdfw.wa.gov/fishing/locations/high-lakes/enchantment-no-3-leprechaun-lake", "elevation": 6879.0, "county": "Chelan", "lat": 47.478118, "lon": -120.787162, "acres": "9.20"}, {"name": "Enchantment No 5 (Inspiration Lake)", "url": "https://wdfw.wa.gov/fishing/locations/high-lakes/enchantment-no-5-inspiration-lake", "elevation": 7194.0, "county": "Chelan", "lat": 47.4824, "lon": -120.801247, "acres": "17.10"}, {"name": "Flapjack Point Pot", "url": "https://wdfw.wa.gov/fishing/locations/high-lakes/flapjack-point-pot", "elevation": 4384.0, "county": "Snohomish", "lat": 47.791192, "lon": -121.370943, "acres": "2.10"}, {"name": "Found", "url": "https://wdfw.wa.gov/fishing/locations/high-lakes/found", "elevation": 4027.0, "county": "Skagit", "lat": 48.434211, "lon": -121.253438, "acres": "62.90"}, {"name": "Gee - Little", "url": "https://wdfw.wa.gov/fishing/locations/high-lakes/gee-little", "elevation": 4186.0, "county": "Skagit", "lat": 48.419248, "lon": -121.812553, "acres": "2.00"}, {"name": "Gertrude", "url": "https://wdfw.wa.gov/fishing/locations/high-lakes/gertrude", "elevation": 5740.0, "county": "Lewis", "lat": 46.39117, "lon": -121.397854, "acres": "8.40"}, {"name": "Glory", "url": "https://wdfw.wa.gov/fishing/locations/high-lakes/glory", "elevation": 6671.0, "county": "Okanogan", "lat": 48.908928, "lon": -120.241182, "acres": "1.60"}, {"name": "Goat", "url": "https://wdfw.wa.gov/fishing/locations/high-lakes/goat", "elevation": 4347.0, "county": "Pierce", "lat": 46.793311, "lon": -121.924495, "acres": "7.70"}, {"name": "Goat (Snohomish)", "url": "https://wdfw.wa.gov/fishing/locations/high-lakes/goat-snohomish", "elevation": 3165.0, "county": "Snohomish", "lat": 48.017787, "lon": -121.350916, "acres": "58.40"}, {"name": "Grace (1)", "url": "https://wdfw.wa.gov/fishing/locations/high-lakes/grace-1", "elevation": 4508.0, "county": "King", "lat": 47.74068, "lon": -121.109842, "acres": "1.40"}, {"name": "Grace (2)", "url": "https://wdfw.wa.gov/fishing/locations/high-lakes/grace-2", "elevation": 4670.0, "county": "King", "lat": 47.738338, "lon": -121.109942, "acres": "1.10"}, {"name": "Grace (3)", "url": "https://wdfw.wa.gov/fishing/locations/high-lakes/grace-3", "elevation": 4866.0, "county": "King", "lat": 47.735669, "lon": -121.110816, "acres": "0.50"}, {"name": "Grace (4)", "url": "https://wdfw.wa.gov/fishing/locations/high-lakes/grace-4", "elevation": 4793.0, "county": "King", "lat": 47.736606, "lon": -121.112998, "acres": "1.30"}, {"name": "Grace - Lower (1)", "url": "https://wdfw.wa.gov/fishing/locations/high-lakes/grace-lower-1", "elevation": 6271.0, "county": "Chelan", "lat": 47.692762, "lon": -120.939545, "acres": "5.30"}, {"name": "Grass", "url": "https://wdfw.wa.gov/fishing/locations/high-lakes/grass", "elevation": 3580.0, "county": "Chelan", "lat": 47.685256, "lon": -121.076925, "acres": "1.90"}, {"name": "Greenwood", "url": "https://wdfw.wa.gov/fishing/locations/high-lakes/greenwood", "elevation": 4465.0, "county": "Lewis", "lat": 46.658701, "lon": -121.908596, "acres": "5.90"}, {"name": "Gulch (2)", "url": "https://wdfw.wa.gov/fishing/locations/high-lakes/gulch-2", "elevation": 3632.0, "county": "Snohomish", "lat": 47.938696, "lon": -121.456076, "acres": "3.90"}, {"name": "Gus", "url": "https://wdfw.wa.gov/fishing/locations/high-lakes/gus", "elevation": 4228.0, "county": "King", "lat": 47.565426, "lon": -121.34102, "acres": "10.30"}, {"name": "Gus - Little", "url": "https://wdfw.wa.gov/fishing/locations/high-lakes/gus-little", "elevation": 4154.0, "county": "King", "lat": 47.569968, "lon": -121.347904, "acres": "3.10"}, {"name": "Halfmoon", "url": "https://wdfw.wa.gov/fishing/locations/high-lakes/halfmoon", "elevation": 6716.0, "county": "Okanogan", "lat": 48.828214, "lon": -120.245434, "acres": "10.90"}, {"name": "Hardscrabble - Lower", "url": "https://wdfw.wa.gov/fishing/locations/high-lakes/hardscrabble-lower", "elevation": 4063.0, "county": "King", "lat": 47.527074, "lon": -121.351076, "acres": "10.40"}, {"name": "Hardscrabble - Upper", "url": "https://wdfw.wa.gov/fishing/locations/high-lakes/hardscrabble-upper", "elevation": 4589.0, "county": "King", "lat": 47.531792, "lon": -121.341529, "acres": "6.70"}, {"name": "Hardscrabble Pot - Lwr", "url": "https://wdfw.wa.gov/fishing/locations/high-lakes/hardscrabble-pot-lwr", "elevation": 4047.0, "county": "King", "lat": 47.524725, "lon": -121.351291, "acres": "0.30"}, {"name": "Henskin - Lower", "url": "https://wdfw.wa.gov/fishing/locations/high-lakes/henskin-lower", "elevation": 5480.0, "county": "Pierce", "lat": 46.918372, "lon": -121.483834, "acres": "2.20"}, {"name": "Henskin - Upper", "url": "https://wdfw.wa.gov/fishing/locations/high-lakes/henskin-upper", "elevation": 5594.0, "county": "Pierce", "lat": 46.915721, "lon": -121.487882, "acres": "0.40"}, {"name": "Hozomeen (HM-2)", "url": "https://wdfw.wa.gov/fishing/locations/high-lakes/hozomeen-hm-2", "elevation": 2827.0, "county": "Whatcom", "lat": 48.959828, "lon": -121.036569, "acres": "97.30"}, {"name": "Iceberg", "url": "https://wdfw.wa.gov/fishing/locations/high-lakes/iceberg", "elevation": 4797.0, "county": "Whatcom", "lat": 48.854069, "lon": -121.717971, "acres": "36.50"}, {"name": "Jade", "url": "https://wdfw.wa.gov/fishing/locations/high-lakes/jade", "elevation": 4614.0, "county": "King", "lat": 47.584823, "lon": -121.257818, "acres": "3.80"}, {"name": "Jason - Lower", "url": "https://wdfw.wa.gov/fishing/locations/high-lakes/jason-lower", "elevation": 5751.0, "county": "Chelan", "lat": 47.717142, "lon": -120.883055, "acres": "1.70"}, {"name": "Jason - Middle", "url": "https://wdfw.wa.gov/fishing/locations/high-lakes/jason-middle", "elevation": 5832.0, "county": "Chelan", "lat": 47.717211, "lon": -120.889565, "acres": "1.30"}, {"name": "Jason - Upper", "url": "https://wdfw.wa.gov/fishing/locations/high-lakes/jason-upper", "elevation": 5838.0, "county": "Chelan", "lat": 47.714583, "lon": -120.890266, "acres": "6.00"}, {"name": "Jerry No. 1", "url": "https://wdfw.wa.gov/fishing/locations/high-lakes/jerry-no.-1", "elevation": 5904.0, "county": "Whatcom", "lat": 48.760643, "lon": -120.919749, "acres": "26.90"}, {"name": "Jerry No. 2", "url": "https://wdfw.wa.gov/fishing/locations/high-lakes/jerry-no.-2", "elevation": 5916.0, "county": "Whatcom", "lat": 48.757497, "lon": -120.921115, "acres": "1.10"}, {"name": "Jerry No. 3", "url": "https://wdfw.wa.gov/fishing/locations/high-lakes/jerry-no.-3", "elevation": 5934.0, "county": "Whatcom", "lat": 48.755677, "lon": -120.924967, "acres": "27.10"}, {"name": "Jewel", "url": "https://wdfw.wa.gov/fishing/locations/high-lakes/jewel", "elevation": 4471.0, "county": "King", "lat": 47.590843, "lon": -121.275979, "acres": "7.80"}, {"name": "Joan", "url": "https://wdfw.wa.gov/fishing/locations/high-lakes/joan", "elevation": 5040.0, "county": "Snohomish", "lat": 47.792052, "lon": -121.193917, "acres": "2.60"}, {"name": "Joan Pot", "url": "https://wdfw.wa.gov/fishing/locations/high-lakes/joan-pot", "elevation": 5060.0, "county": "Snohomish", "lat": 47.790958, "lon": -121.193848, "acres": "0.20"}, {"name": "Josephine - Lower", "url": "https://wdfw.wa.gov/fishing/locations/high-lakes/josephine-lower", "elevation": 2796.0, "county": "Skagit", "lat": 48.584658, "lon": -121.95525, "acres": "2.30"}, {"name": "Julius", "url": "https://wdfw.wa.gov/fishing/locations/high-lakes/julius", "elevation": 5194.0, "county": "Chelan", "lat": 47.736458, "lon": -120.876191, "acres": "13.30"}, {"name": "Kaleetan", "url": "https://wdfw.wa.gov/fishing/locations/high-lakes/kaleetan", "elevation": 3864.0, "county": "King", "lat": 47.466207, "lon": -121.494398, "acres": "41.60"}, {"name": "Klonaqua - Upper", "url": "https://wdfw.wa.gov/fishing/locations/high-lakes/klonaqua-upper", "elevation": 5191.0, "county": "Chelan", "lat": 47.591968, "lon": -121.078666, "acres": "65.20"}, {"name": "Klone Lake 1", "url": "https://wdfw.wa.gov/fishing/locations/high-lakes/klone-lake-1", "elevation": 3184.0, "county": "Grays Harbor", "lat": 47.47216, "lon": -123.543874, "acres": "7.80"}, {"name": "Klone Lake 2", "url": "https://wdfw.wa.gov/fishing/locations/high-lakes/klone-lake-2", "elevation": 3183.0, "county": "Grays Harbor", "lat": 47.47564, "lon": -123.541311, "acres": "4.50"}, {"name": "Knox", "url": "https://wdfw.wa.gov/fishing/locations/high-lakes/knox", "elevation": 6232.0, "county": "Chelan", "lat": 47.693176, "lon": -120.88936, "acres": "4.80"}, {"name": "Lanham", "url": "https://wdfw.wa.gov/fishing/locations/high-lakes/lanham", "elevation": 4149.0, "county": "Chelan", "lat": 47.750364, "lon": -121.018761, "acres": "7.10"}, {"name": "Leonard - Lower", "url": "https://wdfw.wa.gov/fishing/locations/high-lakes/leonard-lower", "elevation": 6188.0, "county": "Chelan", "lat": 47.533667, "lon": -120.929682, "acres": "1.90"}, {"name": "Leonard - Upper", "url": "https://wdfw.wa.gov/fishing/locations/high-lakes/leonard-upper", "elevation": 6909.0, "county": "Chelan", "lat": 47.528915, "lon": -120.924345, "acres": "1.30"}, {"name": "Lichenwasser", "url": "https://wdfw.wa.gov/fishing/locations/high-lakes/lichenwasser", "elevation": 4708.0, "county": "Chelan", "lat": 47.792343, "lon": -121.076817, "acres": "25.10"}, {"name": "Loch Eileen", "url": "https://wdfw.wa.gov/fishing/locations/high-lakes/loch-eileen", "elevation": 5512.0, "county": "Chelan", "lat": 47.741462, "lon": -120.889511, "acres": "24.60"}, {"name": "Lonesome", "url": "https://wdfw.wa.gov/fishing/locations/high-lakes/lonesome", "elevation": 4781.0, "county": "Pierce", "lat": 47.006503, "lon": -121.663618, "acres": "8.30"}, {"name": "Long", "url": "https://wdfw.wa.gov/fishing/locations/high-lakes/long", "elevation": 3839.0, "county": "Clallam", "lat": 47.922571, "lon": -123.773447, "acres": "14.20"}, {"name": "Lost", "url": "https://wdfw.wa.gov/fishing/locations/high-lakes/lost", "elevation": 3989.0, "county": "Pierce", "lat": 47.046379, "lon": -121.46053, "acres": "17.20"}, {"name": "Lost (Pierce)", "url": "https://wdfw.wa.gov/fishing/locations/high-lakes/lost-pierce", "elevation": 5528.0, "county": "Pierce", "lat": 46.942833, "lon": -121.657969, "acres": "6.50"}, {"name": "Louis", "url": "https://wdfw.wa.gov/fishing/locations/high-lakes/louis", "elevation": 4469.0, "county": "Chelan", "lat": 47.864192, "lon": -121.132616, "acres": "3.60"}, {"name": "Lyle", "url": "https://wdfw.wa.gov/fishing/locations/high-lakes/lyle", "elevation": 4151.0, "county": "Pierce", "lat": 47.070524, "lon": -121.820775, "acres": "7.80"}, {"name": "Lyman", "url": "https://wdfw.wa.gov/fishing/locations/high-lakes/lyman", "elevation": 5603.0, "county": "Chelan", "lat": 48.193334, "lon": -120.910499, "acres": "73.50"}, {"name": "Mad", "url": "https://wdfw.wa.gov/fishing/locations/high-lakes/mad", "elevation": 5820.0, "county": "Chelan", "lat": 47.934184, "lon": -120.653888, "acres": "7.50"}, {"name": "Maiden", "url": "https://wdfw.wa.gov/fishing/locations/high-lakes/maiden", "elevation": 3923.0, "county": "Whatcom", "lat": 48.799895, "lon": -121.664967, "acres": "18.30"}, {"name": "Martin - Lower", "url": "https://wdfw.wa.gov/fishing/locations/high-lakes/martin-lower", "elevation": 6744.0, "county": "Okanogan", "lat": 48.189721, "lon": -120.334929, "acres": "6.00"}, {"name": "Merritt", "url": "https://wdfw.wa.gov/fishing/locations/high-lakes/merritt", "elevation": 5027.0, "county": "Chelan", "lat": 47.805934, "lon": -120.913651, "acres": "5.50"}, {"name": "Mesa", "url": "https://wdfw.wa.gov/fishing/locations/high-lakes/mesa", "elevation": 6694.0, "county": "Chelan", "lat": 47.507994, "lon": -120.76594, "acres": "3.60"}, {"name": "Meta", "url": "https://wdfw.wa.gov/fishing/locations/high-lakes/meta", "elevation": 3634.0, "county": "Skamania", "lat": 46.297013, "lon": -122.082502, "acres": "10.40"}, {"name": "Mirror", "url": "https://wdfw.wa.gov/fishing/locations/high-lakes/mirror", "elevation": 5489.0, "county": "Chelan", "lat": 48.156633, "lon": -120.652251, "acres": "25.20"}, {"name": "Monogram", "url": "https://wdfw.wa.gov/fishing/locations/high-lakes/monogram", "elevation": 4877.0, "county": "Skagit", "lat": 48.556917, "lon": -121.280465, "acres": "28.70"}, {"name": "Mosquito", "url": "https://wdfw.wa.gov/fishing/locations/high-lakes/mosquito", "elevation": 5288.0, "county": "Okanogan", "lat": 48.408319, "lon": -120.633845, "acres": "5.80"}, {"name": "Mosquito (King)", "url": "https://wdfw.wa.gov/fishing/locations/high-lakes/mosquito-king", "elevation": 4470.0, "county": "King", "lat": 47.763419, "lon": -121.147788, "acres": "1.20"}, {"name": "Mosquito Pothole - E", "url": "https://wdfw.wa.gov/fishing/locations/high-lakes/mosquito-pothole-e", "elevation": 4590.0, "county": "King", "lat": 47.763413, "lon": -121.143604, "acres": "2.10"}, {"name": "Mt Fernow Pothole 3", "url": "https://wdfw.wa.gov/fishing/locations/high-lakes/mt-fernow-pothole-3", "elevation": 4381.0, "county": "King", "lat": 47.766663, "lon": -121.235209, "acres": "0.90"}, {"name": "Murphy - Upper", "url": "https://wdfw.wa.gov/fishing/locations/high-lakes/murphy-upper", "elevation": 4748.0, "county": "King", "lat": 47.683804, "lon": -121.129951, "acres": "6.50"}, {"name": "Myrtle", "url": "https://wdfw.wa.gov/fishing/locations/high-lakes/myrtle", "elevation": 3768.0, "county": "Chelan", "lat": 48.055545, "lon": -120.703582, "acres": "18.00"}, {"name": "Myrtle (King)", "url": "https://wdfw.wa.gov/fishing/locations/high-lakes/myrtle-king", "elevation": 3781.0, "county": "King", "lat": 47.549148, "lon": -121.38338, "acres": "14.40"}, {"name": "Naneum", "url": "https://wdfw.wa.gov/fishing/locations/high-lakes/naneum", "elevation": 4431.0, "county": "Kittitas", "lat": 47.265648, "lon": -120.508453, "acres": "4.70"}, {"name": "No Dice", "url": "https://wdfw.wa.gov/fishing/locations/high-lakes/no-dice", "elevation": 6545.0, "county": "Okanogan", "lat": 48.770792, "lon": -120.33968, "acres": "2.90"}, {"name": "Olallie", "url": "https://wdfw.wa.gov/fishing/locations/high-lakes/olallie", "elevation": 3785.0, "county": "King", "lat": 47.422552, "lon": -121.510259, "acres": "13.20"}, {"name": "Panorama", "url": "https://wdfw.wa.gov/fishing/locations/high-lakes/panorama", "elevation": 5282.0, "county": "King", "lat": 47.630702, "lon": -121.335587, "acres": "8.00"}, {"name": "Phoebe", "url": "https://wdfw.wa.gov/fishing/locations/high-lakes/phoebe", "elevation": 5218.0, "county": "Chelan", "lat": 47.600508, "lon": -121.105906, "acres": "11.70"}, {"name": "Phoebe - Lower", "url": "https://wdfw.wa.gov/fishing/locations/high-lakes/phoebe-lower", "elevation": 5151.0, "county": "Chelan", "lat": 47.603767, "lon": -121.105054, "acres": "2.30"}, {"name": "Placer", "url": "https://wdfw.wa.gov/fishing/locations/high-lakes/placer", "elevation": 5380.0, "county": "Yakima", "lat": 46.904563, "lon": -121.481431, "acres": "3.10"}, {"name": "Pocket No. 1", "url": "https://wdfw.wa.gov/fishing/locations/high-lakes/pocket-no.-1", "elevation": 4515.0, "county": "Whatcom", "lat": 48.985594, "lon": -121.532349, "acres": "4.90"}, {"name": "Porcupine", "url": "https://wdfw.wa.gov/fishing/locations/high-lakes/porcupine", "elevation": 4626.0, "county": "Kittitas", "lat": 47.392113, "lon": -121.340187, "acres": "0.20"}, {"name": "Pugsley (Dans)", "url": "https://wdfw.wa.gov/fishing/locations/high-lakes/pugsley-dans", "elevation": 3419.0, "county": "King", "lat": 47.586085, "lon": -121.399945, "acres": "16.70"}, {"name": "Purvis", "url": "https://wdfw.wa.gov/fishing/locations/high-lakes/purvis", "elevation": 5313.0, "county": "King", "lat": 47.627731, "lon": -121.346616, "acres": "6.90"}, {"name": "Rachor Creek Res", "url": "https://wdfw.wa.gov/fishing/locations/high-lakes/rachor-creek-res", "elevation": 2281.0, "county": "King", "lat": 47.533931, "lon": -121.701966, "acres": "0.50"}, {"name": "Rainbow - Lower", "url": "https://wdfw.wa.gov/fishing/locations/high-lakes/rainbow-lower", "elevation": 5634.0, "county": "Chelan", "lat": 48.402384, "lon": -120.739547, "acres": "14.60"}, {"name": "Rat Creek Pond", "url": "https://wdfw.wa.gov/fishing/locations/high-lakes/rat-creek-pond", "elevation": 6261.0, "county": "Chelan", "lat": 47.514582, "lon": -120.76717, "acres": "0.40"}, {"name": "Robin - Lower", "url": "https://wdfw.wa.gov/fishing/locations/high-lakes/robin-lower", "elevation": 6168.0, "county": "Kittitas", "lat": 47.583661, "lon": -121.101851, "acres": "8.90"}, {"name": "Robin - Upper", "url": "https://wdfw.wa.gov/fishing/locations/high-lakes/robin-upper", "elevation": 6183.0, "county": "Kittitas", "lat": 47.586466, "lon": -121.099525, "acres": "34.90"}, {"name": "Rock", "url": "https://wdfw.wa.gov/fishing/locations/high-lakes/rock", "elevation": 5862.0, "county": "Chelan", "lat": 47.797634, "lon": -120.963897, "acres": "2.70"}, {"name": "Rock (King)", "url": "https://wdfw.wa.gov/fishing/locations/high-lakes/rock-king1", "elevation": 4550.0, "county": "King", "lat": 47.640293, "lon": -121.335078, "acres": "23.10"}, {"name": "Ruth", "url": "https://wdfw.wa.gov/fishing/locations/high-lakes/ruth", "elevation": 6542.0, "county": "Chelan", "lat": 47.574339, "lon": -120.861857, "acres": "1.20"}, {"name": "Saucer", "url": "https://wdfw.wa.gov/fishing/locations/high-lakes/saucer", "elevation": 4487.0, "county": "Snohomish", "lat": 47.829128, "lon": -121.14734, "acres": "15.00"}, {"name": "Sauer", "url": "https://wdfw.wa.gov/fishing/locations/high-lakes/sauer", "elevation": 4788.0, "county": "Chelan", "lat": 47.581794, "lon": -121.064701, "acres": "6.40"}, {"name": "Sheep", "url": "https://wdfw.wa.gov/fishing/locations/high-lakes/sheep", "elevation": 7080.0, "county": "Okanogan", "lat": 48.97299, "lon": -120.379415, "acres": "4.40"}, {"name": "Sheep (Yakima)", "url": "https://wdfw.wa.gov/fishing/locations/high-lakes/sheep-yakima", "elevation": 5760.0, "county": "Yakima", "lat": 46.89457, "lon": -121.50248, "acres": "2.50"}, {"name": "Shield", "url": "https://wdfw.wa.gov/fishing/locations/high-lakes/shield", "elevation": 6699.0, "county": "Chelan", "lat": 47.496981, "lon": -120.780756, "acres": "35.80"}, {"name": "Shoestring", "url": "https://wdfw.wa.gov/fishing/locations/high-lakes/shoestring", "elevation": 5668.0, "county": "Kittitas", "lat": 47.018892, "lon": -121.011589, "acres": "1.10"}, {"name": "Shovel", "url": "https://wdfw.wa.gov/fishing/locations/high-lakes/shovel", "elevation": 4143.0, "county": "Kittitas", "lat": 47.53831, "lon": -121.202894, "acres": "34.40"}, {"name": "Shuksan", "url": "https://wdfw.wa.gov/fishing/locations/high-lakes/shuksan", "elevation": 3698.0, "county": "Whatcom", "lat": 48.773767, "lon": -121.573469, "acres": "29.00"}, {"name": "Skymo", "url": "https://wdfw.wa.gov/fishing/locations/high-lakes/skymo", "elevation": 5281.0, "county": "Whatcom", "lat": 48.836288, "lon": -121.103291, "acres": "10.70"}, {"name": "Skymo - Upper", "url": "https://wdfw.wa.gov/fishing/locations/high-lakes/skymo-upper", "elevation": 5282.0, "county": "Whatcom", "lat": 48.833582, "lon": -121.10575, "acres": "0.60"}, {"name": "Sourdough", "url": "https://wdfw.wa.gov/fishing/locations/high-lakes/sourdough", "elevation": 4617.0, "county": "Whatcom", "lat": 48.759094, "lon": -121.124668, "acres": "26.60"}, {"name": "South", "url": "https://wdfw.wa.gov/fishing/locations/high-lakes/south", "elevation": 6171.0, "county": "Okanogan", "lat": 48.42762, "lon": -120.637862, "acres": "2.20"}, {"name": "South Pot 1", "url": "https://wdfw.wa.gov/fishing/locations/high-lakes/south-pot-1", "elevation": 6262.0, "county": "Okanogan", "lat": 48.431283, "lon": -120.639657, "acres": "1.00"}, {"name": "Strawberry", "url": "https://wdfw.wa.gov/fishing/locations/high-lakes/strawberry", "elevation": 4752.0, "county": "Skamania", "lat": 46.325907, "lon": -122.053863, "acres": "7.50"}, {"name": "Summit (Mosquito)", "url": "https://wdfw.wa.gov/fishing/locations/high-lakes/summit-mosquito", "elevation": 4589.0, "county": "King", "lat": 47.739428, "lon": -121.114923, "acres": "5.40"}, {"name": "Theseus", "url": "https://wdfw.wa.gov/fishing/locations/high-lakes/theseus", "elevation": 5064.0, "county": "Chelan", "lat": 47.848406, "lon": -121.031554, "acres": "27.40"}, {"name": "Toketie", "url": "https://wdfw.wa.gov/fishing/locations/high-lakes/toketie", "elevation": 6187.0, "county": "Chelan", "lat": 47.50967, "lon": -120.744504, "acres": "7.80"}, {"name": "Tomyhoi", "url": "https://wdfw.wa.gov/fishing/locations/high-lakes/tomyhoi", "elevation": 3726.0, "county": "Whatcom", "lat": 48.974521, "lon": -121.681236, "acres": "61.90"}, {"name": "Triplet No. 1 (Lower)", "url": "https://wdfw.wa.gov/fishing/locations/high-lakes/triplet-no.-1-lower", "elevation": 6347.0, "county": "Chelan", "lat": 48.292823, "lon": -120.556335, "acres": "2.40"}, {"name": "Trout", "url": "https://wdfw.wa.gov/fishing/locations/high-lakes/trout", "elevation": 4789.0, "county": "Chelan", "lat": 47.557278, "lon": -120.907657, "acres": "15.80"}, {"name": "Tuck", "url": "https://wdfw.wa.gov/fishing/locations/high-lakes/tuck", "elevation": 5273.0, "county": "Kittitas", "lat": 47.588168, "lon": -121.11589, "acres": "16.00"}, {"name": "Tuck Pot", "url": "https://wdfw.wa.gov/fishing/locations/high-lakes/tuck-pot", "elevation": 5264.0, "county": "Kittitas", "lat": 47.587168, "lon": -121.119203, "acres": "1.10"}, {"name": "Turquoise", "url": "https://wdfw.wa.gov/fishing/locations/high-lakes/turquoise", "elevation": 5469.0, "county": "Chelan", "lat": 47.616711, "lon": -121.050079, "acres": "19.00"}, {"name": "Tusco Out-In Pot - Large", "url": "https://wdfw.wa.gov/fishing/locations/high-lakes/tusco-out-in-pot-large", "elevation": 3674.0, "county": "King", "lat": 47.435231, "lon": -121.490203, "acres": "5.50"}, {"name": "Tusco Out-In Pot - Small", "url": "https://wdfw.wa.gov/fishing/locations/high-lakes/tusco-out-in-pot-small", "elevation": 3673.0, "county": "King", "lat": 47.43508, "lon": -121.492152, "acres": "1.60"}, {"name": "Twin - Lower", "url": "https://wdfw.wa.gov/fishing/locations/high-lakes/twin-lower", "elevation": 5165.0, "county": "Whatcom", "lat": 48.95119, "lon": -121.638326, "acres": "18.20"}, {"name": "Twin - Lower (Snohomish)", "url": "https://wdfw.wa.gov/fishing/locations/high-lakes/twin-lower-snohomish", "elevation": 4624.0, "county": "Snohomish", "lat": 47.949446, "lon": -121.377239, "acres": "23.30"}, {"name": "Twin - Upper", "url": "https://wdfw.wa.gov/fishing/locations/high-lakes/twin-upper", "elevation": 5181.0, "county": "Whatcom", "lat": 48.953043, "lon": -121.633053, "acres": "16.40"}, {"name": "Tye", "url": "https://wdfw.wa.gov/fishing/locations/high-lakes/tye", "elevation": 4682.0, "county": "King", "lat": 47.765056, "lon": -121.112086, "acres": "3.20"}, {"name": "Watson Pot", "url": "https://wdfw.wa.gov/fishing/locations/high-lakes/watson-pot", "elevation": 4332.0, "county": "Whatcom", "lat": 48.669677, "lon": -121.582656, "acres": "1.80"}, {"name": "White (1)", "url": "https://wdfw.wa.gov/fishing/locations/high-lakes/white-1", "elevation": 6350.0, "county": "Okanogan", "lat": 48.90901, "lon": -120.549642, "acres": "3.00"}, {"name": "White (2)", "url": "https://wdfw.wa.gov/fishing/locations/high-lakes/white-2", "elevation": 6592.0, "county": "Okanogan", "lat": 48.905782, "lon": -120.544872, "acres": "1.90"}, {"name": "Yutaka", "url": "https://wdfw.wa.gov/fishing/locations/high-lakes/yutaka", "elevation": 4754.0, "county": "King", "lat": 47.775467, "lon": -121.123857, "acres": "2.20"}], "timestamp": "2019-06-28 10:11:25"}