{"lakes": [{"name": "6030 Pond 1", "url": "https://wdfw.wa.gov/fishing/locations/high-lakes/6030-pond-1", "elevation": 3546.0, "area": "1.20 acres", "county": "Skamania", "lat": 45.963519, "lon": -121.73846, "starting": false, "overabundant": false}, {"name": "6030 Pond 2", "url": "https://wdfw.wa.gov/fishing/locations/high-lakes/6030-pond-2", "elevation": 3573.0, "area": "4.20 acres", "county": "Skamania", "lat": 45.962394, "lon": -121.729484, "starting": false, "overabundant": false}, {"name": "88 Road Beaver Pond", "url": "https://wdfw.wa.gov/fishing/locations/high-lakes/88-road-beaver-pond", "elevation": 3311.0, "area": "0.90 acres", "county": "Skamania", "lat": 46.168676, "lon": -121.686368, "starting": false, "overabundant": false}, {"name": "Abernathy", "url": "https://wdfw.wa.gov/fishing/locations/high-lakes/abernathy", "elevation": 6362.0, "area": "3.20 acres", "county": "Okanogan", "lat": 48.482868, "lon": -120.510432, "starting": false, "overabundant": false}, {"name": "Airplane (Snohomish County)", "url": "https://wdfw.wa.gov/fishing/locations/high-lakes/airplane-snohomish", "elevation": 3069.0, "area": "2.00 acres", "county": "Snohomish", "lat": 47.811567, "lon": -121.734707, "starting": false, "overabundant": false}, {"name": "Airview", "url": "https://wdfw.wa.gov/fishing/locations/high-lakes/airview", "elevation": 7239.0, "area": "4.50 acres", "county": "Okanogan", "lat": 48.928944, "lon": -120.210599, "starting": false, "overabundant": false}, {"name": "Alice", "url": "https://wdfw.wa.gov/fishing/locations/high-lakes/alice", "elevation": 6037.0, "area": "3.80 acres", "county": "Chelan", "lat": 47.647503, "lon": -120.917521, "starting": false, "overabundant": false}, {"name": "Alp", "url": "https://wdfw.wa.gov/fishing/locations/high-lakes/alp", "elevation": 6344.0, "area": "4.20 acres", "county": "Skagit", "lat": 48.409912, "lon": -121.079249, "starting": false, "overabundant": false}, {"name": "Alta Mtn Pot 1", "url": "https://wdfw.wa.gov/fishing/locations/high-lakes/alta-mtn-pot-1", "elevation": 5512.0, "area": "0.50 acres", "county": "Kittitas", "lat": 47.437467, "lon": -121.325012, "starting": false, "overabundant": false}, {"name": "Alta Mtn Pot 2", "url": "https://wdfw.wa.gov/fishing/locations/high-lakes/alta-mtn-pot-2", "elevation": 5635.0, "area": "1.40 acres", "county": "Kittitas", "lat": 47.437594, "lon": -121.327748, "starting": false, "overabundant": false}, {"name": "American", "url": "https://wdfw.wa.gov/fishing/locations/high-lakes/american", "elevation": 5268.0, "area": "5.40 acres", "county": "Yakima", "lat": 46.817884, "lon": -121.458107, "starting": false, "overabundant": false}, {"name": "Anderson (King County)", "url": "https://wdfw.wa.gov/fishing/locations/high-lakes/anderson", "elevation": 4188.0, "area": "2.10 acres", "county": "King", "lat": 47.601706, "lon": -121.48403, "starting": false, "overabundant": false}, {"name": "Anderson 1", "url": "https://wdfw.wa.gov/fishing/locations/high-lakes/anderson-1", "elevation": 4443.0, "area": "4.30 acres", "county": "Whatcom", "lat": 48.659798, "lon": -121.595146, "starting": false, "overabundant": false}, {"name": "Anderson 2", "url": "https://wdfw.wa.gov/fishing/locations/high-lakes/anderson-2", "elevation": 4970.0, "area": "3.10 acres", "county": "Whatcom", "lat": 48.659238, "lon": -121.588592, "starting": false, "overabundant": false}, {"name": "Anderson 3", "url": "https://wdfw.wa.gov/fishing/locations/high-lakes/anderson-3", "elevation": 4980.0, "area": "1.00 acres", "county": "Whatcom", "lat": 48.65771, "lon": -121.587069, "starting": false, "overabundant": false}, {"name": "Anderson Lake (Lewis County)", "url": "https://wdfw.wa.gov/fishing/locations/high-lakes/anderson-lewis", "elevation": 3867.0, "area": "5.40 acres", "county": "Lewis", "lat": 46.693699, "lon": -122.036528, "starting": false, "overabundant": false}, {"name": "Anderson Lake - Upper (Lewis County)", "url": "https://wdfw.wa.gov/fishing/locations/high-lakes/anderson-upper", "elevation": 3958.0, "area": "3.30 acres", "county": "Lewis", "lat": 46.695387, "lon": -122.032535, "starting": false, "overabundant": false}, {"name": "Angel", "url": "https://wdfw.wa.gov/fishing/locations/high-lakes/angel", "elevation": 3638.0, "area": "0.70 acres", "county": "Yakima", "lat": 46.785108, "lon": -121.055792, "starting": false, "overabundant": false}, {"name": "Angeline", "url": "https://wdfw.wa.gov/fishing/locations/high-lakes/angeline", "elevation": 4613.0, "area": "183.70 acres", "county": "King", "lat": 47.570765, "lon": -121.307143, "starting": false, "overabundant": false}, {"name": "Ann Lake", "url": "https://wdfw.wa.gov/fishing/locations/high-lakes/ann-lake", "elevation": 5480.0, "area": "18.50 acres", "county": "Chelan", "lat": 48.506692, "lon": -120.757152, "starting": true, "overabundant": false}, {"name": "Anna", "url": "https://wdfw.wa.gov/fishing/locations/high-lakes/anna", "elevation": 4755.0, "area": "1.70 acres", "county": "Yakima", "lat": 47.0046, "lon": -121.36574, "starting": false, "overabundant": false}, {"name": "Annette Lake", "url": "https://wdfw.wa.gov/fishing/locations/high-lakes/annette-lake", "elevation": 3624.0, "area": "18.40 acres", "county": "King", "lat": 47.358964, "lon": -121.474328, "starting": true, "overabundant": false}, {"name": "Arbuthnot", "url": "https://wdfw.wa.gov/fishing/locations/high-lakes/arbuthnot", "elevation": 4770.0, "area": "6.90 acres", "county": "Whatcom", "lat": 48.859145, "lon": -121.723004, "starting": true, "overabundant": false}, {"name": "Art Lake (Lewis County)", "url": "https://wdfw.wa.gov/fishing/locations/high-lakes/art", "elevation": 3839.0, "area": "1.60 acres", "county": "Lewis", "lat": 46.602913, "lon": -121.607602, "starting": false, "overabundant": false}, {"name": "Art Lake (Yakima County)", "url": "https://wdfw.wa.gov/fishing/locations/high-lakes/art-yakima", "elevation": 5236.0, "area": "1.60 acres", "county": "Yakima", "lat": 46.698562, "lon": -121.357105, "starting": false, "overabundant": false}, {"name": "Ashland - Upper", "url": "https://wdfw.wa.gov/fishing/locations/high-lakes/ashland-upper", "elevation": 2850.0, "area": "6.10 acres", "county": "Snohomish", "lat": 48.031307, "lon": -121.7195, "starting": false, "overabundant": false}, {"name": "Augusta", "url": "https://wdfw.wa.gov/fishing/locations/high-lakes/augusta", "elevation": 6858.0, "area": "23.10 acres", "county": "Chelan", "lat": 47.653492, "lon": -120.835361, "starting": false, "overabundant": false}, {"name": "Bald", "url": "https://wdfw.wa.gov/fishing/locations/high-lakes/bald", "elevation": 3780.0, "area": "2.80 acres", "county": "Skagit", "lat": 48.526528, "lon": -121.559133, "starting": false, "overabundant": false}, {"name": "Bald Mountain Pond", "url": "https://wdfw.wa.gov/fishing/locations/high-lakes/bald-mountain-pond", "elevation": 5026.0, "area": "0.40 acres", "county": "Kittitas", "lat": 46.958115, "lon": -120.940888, "starting": false, "overabundant": false}, {"name": "Bald Mtn", "url": "https://wdfw.wa.gov/fishing/locations/high-lakes/bald-mtn", "elevation": 4367.0, "area": "3.20 acres", "county": "Whatcom", "lat": 48.97074, "lon": -121.957338, "starting": false, "overabundant": false}, {"name": "Bald Mtn - Upper", "url": "https://wdfw.wa.gov/fishing/locations/high-lakes/bald-mtn-upper", "elevation": 3621.0, "area": "8.70 acres", "county": "Snohomish", "lat": 48.005003, "lon": -121.666158, "starting": false, "overabundant": false}, {"name": "Bandana", "url": "https://wdfw.wa.gov/fishing/locations/high-lakes/bandana", "elevation": 3221.0, "area": "2.30 acres", "county": "Snohomish", "lat": 48.18588, "lon": -121.77185, "starting": false, "overabundant": false}, {"name": "Basin", "url": "https://wdfw.wa.gov/fishing/locations/high-lakes/basin", "elevation": 5840.0, "area": "4.10 acres", "county": "Yakima", "lat": 46.953614, "lon": -121.439368, "starting": false, "overabundant": false}, {"name": "Basin (Skagit County)", "url": "https://wdfw.wa.gov/fishing/locations/high-lakes/basin-skagit", "elevation": 4152.0, "area": "0.70 acres", "county": "Skagit", "lat": 48.486438, "lon": -121.281907, "starting": false, "overabundant": false}, {"name": "Bath - Lower", "url": "https://wdfw.wa.gov/fishing/locations/high-lakes/bath-lower", "elevation": 5581.0, "area": "8.40 acres", "county": "Snohomish", "lat": 48.243365, "lon": -121.083826, "starting": false, "overabundant": false}, {"name": "Bathtub - TB 12", "url": "https://wdfw.wa.gov/fishing/locations/high-lakes/bathtub-tb-12", "elevation": 4707.0, "area": "0.90 acres", "county": "Snohomish", "lat": 48.054632, "lon": -121.774243, "starting": false, "overabundant": false}, {"name": "Bathtub - TB 5", "url": "https://wdfw.wa.gov/fishing/locations/high-lakes/bathtub-tb-5", "elevation": 4664.0, "area": "2.00 acres", "county": "Snohomish", "lat": 48.055587, "lon": -121.780008, "starting": false, "overabundant": false}, {"name": "Bathtub - TB 6", "url": "https://wdfw.wa.gov/fishing/locations/high-lakes/bathtub-tb-6", "elevation": 4671.0, "area": "0.80 acres", "county": "Snohomish", "lat": 48.054603, "lon": -121.780602, "starting": false, "overabundant": false}, {"name": "Bathtub - TB 8", "url": "https://wdfw.wa.gov/fishing/locations/high-lakes/bathtub-tb-8", "elevation": 4746.0, "area": "1.30 acres", "county": "Snohomish", "lat": 48.054807, "lon": -121.775853, "starting": false, "overabundant": false}, {"name": "Bauer", "url": "https://wdfw.wa.gov/fishing/locations/high-lakes/bauer", "elevation": 6358.0, "area": "1.40 acres", "county": "Yakima", "lat": 46.850318, "lon": -121.256582, "starting": false, "overabundant": false}, {"name": "Bear 1", "url": "https://wdfw.wa.gov/fishing/locations/high-lakes/bear-1", "elevation": 4679.0, "area": "2.50 acres", "county": "King", "lat": 47.647976, "lon": -121.485874, "starting": false, "overabundant": false}, {"name": "Bear Lake (King County)", "url": "https://wdfw.wa.gov/fishing/locations/high-lakes/bear-lake-king", "elevation": 3614.0, "area": "45.80 acres", "county": "King", "lat": 47.573663, "lon": -121.394876, "starting": true, "overabundant": false}, {"name": "Bear Lake (Skagit County)", "url": "https://wdfw.wa.gov/fishing/locations/high-lakes/bear-skagit", "elevation": 3709.0, "area": "1.40 acres", "county": "Skagit", "lat": 48.490203, "lon": -121.270145, "starting": false, "overabundant": false}, {"name": "Bear Lake (Skamania County)", "url": "https://wdfw.wa.gov/fishing/locations/high-lakes/bear-skamania", "elevation": 4748.0, "area": "8.00 acres", "county": "Skamania", "lat": 46.019308, "lon": -121.78936, "starting": false, "overabundant": false}, {"name": "Bear Lake (Yakima County)", "url": "https://wdfw.wa.gov/fishing/locations/high-lakes/bear-lake", "elevation": 4639.0, "area": "3.90 acres", "county": "Yakima", "lat": 46.726766, "lon": -121.019826, "starting": true, "overabundant": false}, {"name": "Bear Pot 6 (Upper)", "url": "https://wdfw.wa.gov/fishing/locations/high-lakes/bear-pot-6-upper", "elevation": 4382.0, "area": "0.60 acres", "county": "King", "lat": 47.564432, "lon": -121.384774, "starting": false, "overabundant": false}, {"name": "Bear Tracks", "url": "https://wdfw.wa.gov/fishing/locations/high-lakes/bear-tracks", "elevation": 3890.0, "area": "1.10 acres", "county": "Snohomish", "lat": 48.187535, "lon": -121.696562, "starting": false, "overabundant": false}, {"name": "Beaver", "url": "https://wdfw.wa.gov/fishing/locations/high-lakes/beaver", "elevation": 5512.0, "area": "8.80 acres", "county": "Okanogan", "lat": 48.465466, "lon": -119.86681, "starting": false, "overabundant": false}, {"name": "Beaver Plant", "url": "https://wdfw.wa.gov/fishing/locations/high-lakes/beaver-plant", "elevation": 2826.0, "area": "3.40 acres", "county": "Snohomish", "lat": 48.030986, "lon": -121.712913, "starting": false, "overabundant": false}, {"name": "Bee", "url": "https://wdfw.wa.gov/fishing/locations/high-lakes/bee", "elevation": 4356.0, "area": "1.80 acres", "county": "Skagit", "lat": 48.3898, "lon": -121.414745, "starting": false, "overabundant": false}, {"name": "Beehive Reservoir", "url": "https://wdfw.wa.gov/fishing/locations/high-lakes/beehive-reservoir", "elevation": 4247.0, "area": "13.20 acres", "county": "Chelan", "lat": 47.326567, "lon": -120.399643, "starting": false, "overabundant": false}, {"name": "Bengston", "url": "https://wdfw.wa.gov/fishing/locations/high-lakes/bengston", "elevation": 2639.0, "area": "2.80 acres", "county": "King", "lat": 47.762853, "lon": -121.747788, "starting": false, "overabundant": false}, {"name": "Bernice Lake (Skamania County)", "url": "https://wdfw.wa.gov/fishing/locations/high-lakes/bernice", "elevation": 5185.0, "area": "1.60 acres", "county": "Skamania", "lat": 46.206605, "lon": -121.591988, "starting": false, "overabundant": false}, {"name": "Bertha May Lake (Lewis County)", "url": "https://wdfw.wa.gov/fishing/locations/high-lakes/bertha-may-lake", "elevation": 4059.0, "area": "19.20 acres", "county": "Lewis", "lat": 46.69847, "lon": -121.936355, "starting": true, "overabundant": false}, {"name": "Beulah", "url": "https://wdfw.wa.gov/fishing/locations/high-lakes/beulah", "elevation": 4267.0, "area": "1.20 acres", "county": "King", "lat": 47.75974, "lon": -121.255304, "starting": false, "overabundant": false}, {"name": "Big Mosquito Lake", "url": "https://wdfw.wa.gov/fishing/locations/high-lakes/big-mosquito-lake", "elevation": 3896.0, "area": "26.60 acres", "county": "Skamania", "lat": 46.1279, "lon": -121.759193, "starting": true, "overabundant": false}, {"name": "Bill Lake (Lewis County)", "url": "https://wdfw.wa.gov/fishing/locations/high-lakes/bill", "elevation": 5118.0, "area": "2.00 acres", "county": "Lewis", "lat": 46.718477, "lon": -121.38808, "starting": false, "overabundant": false}, {"name": "Bishop - Upper", "url": "https://wdfw.wa.gov/fishing/locations/high-lakes/bishop-upper", "elevation": 4590.0, "area": "1.10 acres", "county": "Lewis", "lat": 46.427565, "lon": -121.711601, "starting": false, "overabundant": false}, {"name": "Bishop Ridge Lake", "url": "https://wdfw.wa.gov/fishing/locations/high-lakes/bishop-ridge-pond", "elevation": 4271.0, "area": "1.80 acres", "county": "Lewis", "lat": 46.43143, "lon": -121.703851, "starting": false, "overabundant": false}, {"name": "Black Lake", "url": "https://wdfw.wa.gov/fishing/locations/high-lakes/black-lake-chelan2", "elevation": 3424.0, "area": "18.30 acres", "county": "Chelan", "lat": 47.303782, "lon": -120.334751, "starting": false, "overabundant": false}, {"name": "Black Pine Lake", "url": "https://wdfw.wa.gov/fishing/locations/high-lakes/black-pine-lake", "elevation": 4015.0, "area": "13.40 acres", "county": "Okanogan", "lat": 48.311182, "lon": -120.277515, "starting": false, "overabundant": false}, {"name": "Blankenship - East", "url": "https://wdfw.wa.gov/fishing/locations/high-lakes/blankenship-east", "elevation": 5234.0, "area": "7.80 acres", "county": "Yakima", "lat": 46.722047, "lon": -121.333057, "starting": false, "overabundant": false}, {"name": "Blankenship - North", "url": "https://wdfw.wa.gov/fishing/locations/high-lakes/blankenship-north", "elevation": 5272.0, "area": "3.70 acres", "county": "Yakima", "lat": 46.723511, "lon": -121.33679, "starting": false, "overabundant": false}, {"name": "Blankenship - South", "url": "https://wdfw.wa.gov/fishing/locations/high-lakes/blankenship-south", "elevation": 5269.0, "area": "5.80 acres", "county": "Yakima", "lat": 46.721147, "lon": -121.337106, "starting": false, "overabundant": false}, {"name": "Blankenship Pot 26", "url": "https://wdfw.wa.gov/fishing/locations/high-lakes/blankenship-pot-26", "elevation": 4990.0, "area": "1.70 acres", "county": "Yakima", "lat": 46.719922, "lon": -121.316893, "starting": false, "overabundant": false}, {"name": "Blazer", "url": "https://wdfw.wa.gov/fishing/locations/high-lakes/blazer", "elevation": 4064.0, "area": "6.20 acres", "county": "King", "lat": 47.427812, "lon": -121.535634, "starting": false, "overabundant": false}, {"name": "Blethen - Lower", "url": "https://wdfw.wa.gov/fishing/locations/high-lakes/blethen-lower", "elevation": 3190.0, "area": "7.90 acres", "county": "King", "lat": 47.572801, "lon": -121.606111, "starting": false, "overabundant": false}, {"name": "Blethen - Upper", "url": "https://wdfw.wa.gov/fishing/locations/high-lakes/blethen-upper", "elevation": 3675.0, "area": "3.00 acres", "county": "King", "lat": 47.56809, "lon": -121.61071, "starting": false, "overabundant": false}, {"name": "Blethen Pond - West", "url": "https://wdfw.wa.gov/fishing/locations/high-lakes/blethen-pond-west", "elevation": 3714.0, "area": "0.50 acres", "county": "King", "lat": 47.567907, "lon": -121.613382, "starting": false, "overabundant": false}, {"name": "Blethen Pot", "url": "https://wdfw.wa.gov/fishing/locations/high-lakes/blethen-pot", "elevation": 3636.0, "area": "1.50 acres", "county": "King", "lat": 47.568167, "lon": -121.592734, "starting": false, "overabundant": false}, {"name": "Blue (Snohomish County)", "url": "https://wdfw.wa.gov/fishing/locations/high-lakes/blue-snohomish", "elevation": 5629.0, "area": "18.70 acres", "county": "Snohomish", "lat": 47.990263, "lon": -121.16928, "starting": false, "overabundant": false}, {"name": "Blue (Yakima County)", "url": "https://wdfw.wa.gov/fishing/locations/high-lakes/blue-yakima", "elevation": 6228.0, "area": "3.30 acres", "county": "Yakima", "lat": 46.552283, "lon": -121.202296, "starting": false, "overabundant": false}, {"name": "Blue - Little", "url": "https://wdfw.wa.gov/fishing/locations/high-lakes/blue-little", "elevation": 5180.0, "area": "2.60 acres", "county": "Snohomish", "lat": 47.985617, "lon": -121.176983, "starting": false, "overabundant": false}, {"name": "Blue Lake (Lewis County)", "url": "https://wdfw.wa.gov/fishing/locations/high-lakes/blue-lake-lewis", "elevation": 4062.0, "area": "121.70 acres", "county": "Lewis", "lat": 46.39737, "lon": -121.700618, "starting": true, "overabundant": false}, {"name": "Blue Lake (Okanogan County)", "url": "https://wdfw.wa.gov/fishing/locations/high-lakes/blue-lake-okanogan", "elevation": 2585.0, "area": "19.80 acres", "county": "Okanogan", "lat": 48.566949, "lon": -119.612742, "starting": false, "overabundant": false}, {"name": "Blue Lake (Skamania County)", "url": "https://wdfw.wa.gov/fishing/locations/high-lakes/blue-skamania3", "elevation": 4557.0, "area": "12.90 acres", "county": "Skamania", "lat": 46.240613, "lon": -121.861766, "starting": false, "overabundant": false}, {"name": "Blue Lake Big (Skamania County)", "url": "https://wdfw.wa.gov/fishing/locations/high-lakes/blue-skamania1", "elevation": 4628.0, "area": "11.80 acres", "county": "Skamania", "lat": 45.984383, "lon": -121.797779, "starting": false, "overabundant": false}, {"name": "Bluff Lake", "url": "https://wdfw.wa.gov/fishing/locations/high-lakes/bluff", "elevation": 3846.0, "area": "3.30 acres", "county": "Lewis", "lat": 46.658904, "lon": -121.546371, "starting": false, "overabundant": false}, {"name": "Boardman", "url": "https://wdfw.wa.gov/fishing/locations/high-lakes/boardman", "elevation": 2989.0, "area": "45.00 acres", "county": "Snohomish", "lat": 48.023794, "lon": -121.690222, "starting": false, "overabundant": false}, {"name": "Bob", "url": "https://wdfw.wa.gov/fishing/locations/high-lakes/bob", "elevation": 5196.0, "area": "3.30 acres", "county": "Chelan", "lat": 47.589806, "lon": -121.064356, "starting": false, "overabundant": false}, {"name": "Boner", "url": "https://wdfw.wa.gov/fishing/locations/high-lakes/boner", "elevation": 4834.0, "area": "2.40 acres", "county": "King", "lat": 47.714902, "lon": -121.485205, "starting": false, "overabundant": false}, {"name": "Boulder", "url": "https://wdfw.wa.gov/fishing/locations/high-lakes/boulder", "elevation": 3710.0, "area": "22.20 acres", "county": "Snohomish", "lat": 47.944404, "lon": -121.547562, "starting": false, "overabundant": false}, {"name": "Bowan", "url": "https://wdfw.wa.gov/fishing/locations/high-lakes/bowan", "elevation": 6500.0, "area": "1.40 acres", "county": "Chelan", "lat": 48.40821, "lon": -120.712176, "starting": false, "overabundant": false}, {"name": "Bowser", "url": "https://wdfw.wa.gov/fishing/locations/high-lakes/bowser", "elevation": 4875.0, "area": "1.20 acres", "county": "Snohomish", "lat": 47.9727, "lon": -121.259695, "starting": false, "overabundant": false}, {"name": "Box Canyon", "url": "https://wdfw.wa.gov/fishing/locations/high-lakes/box-canyon", "elevation": 4510.0, "area": "1.70 acres", "county": "Kittitas", "lat": 47.412602, "lon": -121.324422, "starting": false, "overabundant": false}, {"name": "Brader Lake", "url": "https://wdfw.wa.gov/fishing/locations/high-lakes/brader", "elevation": 4479.0, "area": "3.90 acres", "county": "Skamania", "lat": 46.001754, "lon": -121.82044, "starting": false, "overabundant": false}, {"name": "Brigham", "url": "https://wdfw.wa.gov/fishing/locations/high-lakes/brigham", "elevation": 5832.0, "area": "3.40 acres", "county": "Chelan", "lat": 47.670106, "lon": -120.921084, "starting": false, "overabundant": false}, {"name": "Brown", "url": "https://wdfw.wa.gov/fishing/locations/high-lakes/brown", "elevation": 5117.0, "area": "2.10 acres", "county": "Yakima", "lat": 46.699911, "lon": -121.348719, "starting": false, "overabundant": false}, {"name": "Buck", "url": "https://wdfw.wa.gov/fishing/locations/high-lakes/buck", "elevation": 4674.0, "area": "3.00 acres", "county": "Yakima", "lat": 46.769143, "lon": -121.429287, "starting": false, "overabundant": false}, {"name": "Buck Lake", "url": "https://wdfw.wa.gov/fishing/locations/high-lakes/buck-lake", "elevation": 3251.0, "area": "6.70 acres", "county": "Okanogan", "lat": 48.604092, "lon": -120.200825, "starting": false, "overabundant": false}, {"name": "Buller", "url": "https://wdfw.wa.gov/fishing/locations/high-lakes/buller", "elevation": 3464.0, "area": "1.90 acres", "county": "Skagit", "lat": 48.48993, "lon": -121.369668, "starting": false, "overabundant": false}, {"name": "Bumping Lake", "url": "https://wdfw.wa.gov/fishing/locations/high-lakes/bumping-lake", "elevation": 3430.0, "area": "1353.50 acres", "county": "Yakima", "lat": 46.846944, "lon": -121.331249, "starting": true, "overabundant": false}, {"name": "Buried Hatchet", "url": "https://wdfw.wa.gov/fishing/locations/high-lakes/buried-hatchet", "elevation": 5230.0, "area": "0.70 acres", "county": "King", "lat": 47.5049, "lon": -121.522846, "starting": false, "overabundant": false}, {"name": "Butterfly", "url": "https://wdfw.wa.gov/fishing/locations/high-lakes/butterfly", "elevation": 5269.0, "area": "2.00 acres", "county": "King", "lat": 47.636646, "lon": -121.132898, "starting": false, "overabundant": false}, {"name": "Byrne", "url": "https://wdfw.wa.gov/fishing/locations/high-lakes/byrne", "elevation": 5548.0, "area": "48.80 acres", "county": "Snohomish", "lat": 48.111144, "lon": -121.215561, "starting": true, "overabundant": false}, {"name": "C&E Pot", "url": "https://wdfw.wa.gov/fishing/locations/high-lakes/ce-pot", "elevation": 5439.0, "area": "2.20 acres", "county": "Chelan", "lat": 47.723779, "lon": -120.896029, "starting": false, "overabundant": false}, {"name": "Cabinet", "url": "https://wdfw.wa.gov/fishing/locations/high-lakes/cabinet", "elevation": 5391.0, "area": "2.80 acres", "county": "Skagit", "lat": 48.609122, "lon": -120.87213, "starting": false, "overabundant": false}, {"name": "Cad", "url": "https://wdfw.wa.gov/fishing/locations/high-lakes/cad", "elevation": 4312.0, "area": "1.10 acres", "county": "King", "lat": 47.424547, "lon": -121.478162, "starting": false, "overabundant": false}, {"name": "Cadet", "url": "https://wdfw.wa.gov/fishing/locations/high-lakes/cadet", "elevation": 5558.0, "area": "1.80 acres", "county": "Snohomish", "lat": 48.021942, "lon": -121.332455, "starting": false, "overabundant": false}, {"name": "Camp Lake (Snohomish County)", "url": "https://wdfw.wa.gov/fishing/locations/high-lakes/camp", "elevation": 5706.0, "area": "10.40 acres", "county": "Snohomish", "lat": 48.112124, "lon": -121.225868, "starting": false, "overabundant": false}, {"name": "Camp Lake South", "url": "https://wdfw.wa.gov/fishing/locations/high-lakes/camp-south", "elevation": 3991.0, "area": "6.50 acres", "county": "Skamania", "lat": 46.107976, "lon": -121.768412, "starting": false, "overabundant": false}, {"name": "Canaan", "url": "https://wdfw.wa.gov/fishing/locations/high-lakes/canaan", "elevation": 5915.0, "area": "1.80 acres", "county": "Chelan", "lat": 47.815032, "lon": -120.943411, "starting": false, "overabundant": false}, {"name": "Canyon", "url": "https://wdfw.wa.gov/fishing/locations/high-lakes/canyon", "elevation": 2714.0, "area": "5.10 acres", "county": "Snohomish", "lat": 48.110442, "lon": -121.705465, "starting": false, "overabundant": false}, {"name": "Canyon (Snohomish County)", "url": "https://wdfw.wa.gov/fishing/locations/high-lakes/canyon-snohomish", "elevation": 5611.0, "area": "21.90 acres", "county": "Snohomish", "lat": 48.246694, "lon": -120.995484, "starting": false, "overabundant": false}, {"name": "Cara", "url": "https://wdfw.wa.gov/fishing/locations/high-lakes/cara", "elevation": 6910.0, "area": "1.70 acres", "county": "Chelan", "lat": 47.571056, "lon": -120.855598, "starting": false, "overabundant": false}, {"name": "Caroline", "url": "https://wdfw.wa.gov/fishing/locations/high-lakes/caroline", "elevation": 6192.0, "area": "6.10 acres", "county": "Chelan", "lat": 47.539571, "lon": -120.864283, "starting": false, "overabundant": false}, {"name": "Caroline (King County)", "url": "https://wdfw.wa.gov/fishing/locations/high-lakes/caroline-king", "elevation": 4734.0, "area": "55.80 acres", "county": "King", "lat": 47.487741, "lon": -121.506785, "starting": false, "overabundant": false}, {"name": "Caroline - Little", "url": "https://wdfw.wa.gov/fishing/locations/high-lakes/caroline-little", "elevation": 6309.0, "area": "2.00 acres", "county": "Chelan", "lat": 47.54365, "lon": -120.872258, "starting": false, "overabundant": false}, {"name": "Cecilia", "url": "https://wdfw.wa.gov/fishing/locations/high-lakes/cecilia", "elevation": 3424.0, "area": "1.40 acres", "county": "Snohomish", "lat": 47.928759, "lon": -121.663848, "starting": false, "overabundant": false}, {"name": "Cecils", "url": "https://wdfw.wa.gov/fishing/locations/high-lakes/cecils", "elevation": 4154.0, "area": "4.90 acres", "county": "King", "lat": 47.570327, "lon": -121.351109, "starting": false, "overabundant": false}, {"name": "Cedar (Yakima County)", "url": "https://wdfw.wa.gov/fishing/locations/high-lakes/cedar-yakima", "elevation": 5249.0, "area": "10.50 acres", "county": "Yakima", "lat": 46.841415, "lon": -121.422232, "starting": false, "overabundant": false}, {"name": "Chain of Lakes", "url": "https://wdfw.wa.gov/fishing/locations/high-lakes/chain-of-lakes", "elevation": 4374.0, "area": "11.30 acres", "county": "Skamania", "lat": 46.294081, "lon": -121.600001, "starting": false, "overabundant": false}, {"name": "Charlie - Middle", "url": "https://wdfw.wa.gov/fishing/locations/high-lakes/charlie-middle", "elevation": 3957.0, "area": "0.80 acres", "county": "King", "lat": 47.586462, "lon": -121.366047, "starting": false, "overabundant": false}, {"name": "Charlie - North", "url": "https://wdfw.wa.gov/fishing/locations/high-lakes/charlie-north", "elevation": 3960.0, "area": "2.40 acres", "county": "King", "lat": 47.588629, "lon": -121.369506, "starting": false, "overabundant": false}, {"name": "Charlie - South (aka TB 3)", "url": "https://wdfw.wa.gov/fishing/locations/high-lakes/charlie-south-aka-tb-3", "elevation": 3963.0, "area": "3.40 acres", "county": "King", "lat": 47.583509, "lon": -121.365562, "starting": false, "overabundant": false}, {"name": "Charlie Brown", "url": "https://wdfw.wa.gov/fishing/locations/high-lakes/charlie-brown", "elevation": 4388.0, "area": "1.80 acres", "county": "King", "lat": 47.557683, "lon": -121.470204, "starting": false, "overabundant": false}, {"name": "Chikamin Pot 2", "url": "https://wdfw.wa.gov/fishing/locations/high-lakes/chikamin-pot-2", "elevation": 5712.0, "area": "1.90 acres", "county": "Kittitas", "lat": 47.477671, "lon": -121.302089, "starting": false, "overabundant": false}, {"name": "Chopaka Lake", "url": "https://wdfw.wa.gov/fishing/locations/high-lakes/chopaka-lake", "elevation": 2911.0, "area": "133.20 acres", "county": "Okanogan", "lat": 48.917747, "lon": -119.69997, "starting": false, "overabundant": false}, {"name": "Choral", "url": "https://wdfw.wa.gov/fishing/locations/high-lakes/choral", "elevation": 7193.0, "area": "1.70 acres", "county": "Chelan", "lat": 48.087485, "lon": -120.656643, "starting": false, "overabundant": false}, {"name": "Church", "url": "https://wdfw.wa.gov/fishing/locations/high-lakes/church", "elevation": 5146.0, "area": "8.70 acres", "county": "Whatcom", "lat": 48.94953, "lon": -121.849125, "starting": false, "overabundant": false}, {"name": "Cirque", "url": "https://wdfw.wa.gov/fishing/locations/high-lakes/cirque", "elevation": 5657.0, "area": "7.80 acres", "county": "Yakima", "lat": 46.460608, "lon": -121.299275, "starting": false, "overabundant": false}, {"name": "Clara", "url": "https://wdfw.wa.gov/fishing/locations/high-lakes/clara", "elevation": 5475.0, "area": "1.60 acres", "county": "Chelan", "lat": 47.295939, "lon": -120.417157, "starting": false, "overabundant": false}, {"name": "Clear", "url": "https://wdfw.wa.gov/fishing/locations/high-lakes/clear", "elevation": 5192.0, "area": "3.40 acres", "county": "Chelan", "lat": 47.636475, "lon": -121.121927, "starting": false, "overabundant": false}, {"name": "Clear (Skagit County)", "url": "https://wdfw.wa.gov/fishing/locations/high-lakes/clear-skagit", "elevation": 4054.0, "area": "17.40 acres", "county": "Skagit", "lat": 48.595427, "lon": -121.595407, "starting": false, "overabundant": false}, {"name": "Clear (Snohomish County)", "url": "https://wdfw.wa.gov/fishing/locations/high-lakes/clear-snohomish", "elevation": 3384.0, "area": "4.00 acres", "county": "Snohomish", "lat": 48.01933, "lon": -121.707718, "starting": false, "overabundant": false}, {"name": "Clear Lake (Skamania County)", "url": "https://wdfw.wa.gov/fishing/locations/high-lakes/clear-skamania", "elevation": 4944.0, "area": "10.80 acres", "county": "Skamania", "lat": 46.023109, "lon": -121.782603, "starting": false, "overabundant": false}, {"name": "Cleveland", "url": "https://wdfw.wa.gov/fishing/locations/high-lakes/cleveland", "elevation": 3990.0, "area": "2.20 acres", "county": "King", "lat": 47.687302, "lon": -121.420586, "starting": false, "overabundant": false}, {"name": "Coal Lake", "url": "https://wdfw.wa.gov/fishing/locations/high-lakes/coal-lake", "elevation": 3384.0, "area": "6.60 acres", "county": "Snohomish", "lat": 48.112306, "lon": -121.516638, "starting": true, "overabundant": false}, {"name": "Colchuck", "url": "https://wdfw.wa.gov/fishing/locations/high-lakes/colchuck", "elevation": 5574.0, "area": "85.70 acres", "county": "Chelan", "lat": 47.491988, "lon": -120.833592, "starting": false, "overabundant": false}, {"name": "Comcomly Lake (Skamania County)", "url": "https://wdfw.wa.gov/fishing/locations/high-lakes/comcomly", "elevation": 4272.0, "area": "3.00 acres", "county": "Skamania", "lat": 46.022034, "lon": -121.720043, "starting": false, "overabundant": false}, {"name": "Coney", "url": "https://wdfw.wa.gov/fishing/locations/high-lakes/coney", "elevation": 5165.0, "area": "17.80 acres", "county": "King", "lat": 47.666938, "lon": -121.463724, "starting": false, "overabundant": false}, {"name": "Coney (Snohomish County)", "url": "https://wdfw.wa.gov/fishing/locations/high-lakes/coney-snohomish", "elevation": 4275.0, "area": "2.90 acres", "county": "Snohomish", "lat": 47.991504, "lon": -121.251338, "starting": false, "overabundant": false}, {"name": "Conrad 1", "url": "https://wdfw.wa.gov/fishing/locations/high-lakes/conrad-1", "elevation": 5315.0, "area": "3.70 acres", "county": "Yakima", "lat": 46.512143, "lon": -121.32176, "starting": false, "overabundant": false}, {"name": "Cons", "url": "https://wdfw.wa.gov/fishing/locations/high-lakes/cons", "elevation": 3871.0, "area": "1.40 acres", "county": "King", "lat": 47.559163, "lon": -121.421156, "starting": false, "overabundant": false}, {"name": "Cooper Lake", "url": "https://wdfw.wa.gov/fishing/locations/high-lakes/cooper-lake", "elevation": 2792.0, "area": "129.40 acres", "county": "Kittitas", "lat": 47.426187, "lon": -121.176924, "starting": true, "overabundant": false}, {"name": "Copper", "url": "https://wdfw.wa.gov/fishing/locations/high-lakes/copper", "elevation": 5267.0, "area": "12.90 acres", "county": "Whatcom", "lat": 48.918069, "lon": -121.450833, "starting": false, "overabundant": false}, {"name": "Copper Creek Pot", "url": "https://wdfw.wa.gov/fishing/locations/high-lakes/copper-creek-pot", "elevation": 5855.0, "area": "1.60 acres", "county": "Chelan", "lat": 48.493545, "lon": -120.649937, "starting": false, "overabundant": false}, {"name": "Copper Lake", "url": "https://wdfw.wa.gov/fishing/locations/high-lakes/copper-lake", "elevation": 3965.0, "area": "132.00 acres", "county": "King", "lat": 47.602358, "lon": -121.333052, "starting": true, "overabundant": false}, {"name": "Copper Pothole - East", "url": "https://wdfw.wa.gov/fishing/locations/high-lakes/copper-pothole-east", "elevation": 4428.0, "area": "1.40 acres", "county": "King", "lat": 47.597421, "lon": -121.326481, "starting": false, "overabundant": false}, {"name": "Cora Lake", "url": "https://wdfw.wa.gov/fishing/locations/high-lakes/cora-lake", "elevation": 3834.0, "area": "25.70 acres", "county": "Lewis", "lat": 46.68804, "lon": -121.890534, "starting": true, "overabundant": false}, {"name": "Corral", "url": "https://wdfw.wa.gov/fishing/locations/high-lakes/corral", "elevation": 7157.0, "area": "10.60 acres", "county": "Okanogan", "lat": 48.919146, "lon": -120.357967, "starting": false, "overabundant": false}, {"name": "Cottonwood", "url": "https://wdfw.wa.gov/fishing/locations/high-lakes/cottonwood", "elevation": 3914.0, "area": "8.30 acres", "county": "Kittitas", "lat": 47.349133, "lon": -121.431365, "starting": false, "overabundant": false}, {"name": "Cottonwood - Upper", "url": "https://wdfw.wa.gov/fishing/locations/high-lakes/cottonwood-upper", "elevation": 4072.0, "area": "0.90 acres", "county": "Kittitas", "lat": 47.351026, "lon": -121.437165, "starting": false, "overabundant": false}, {"name": "Cougar", "url": "https://wdfw.wa.gov/fishing/locations/high-lakes/cougar", "elevation": 5019.0, "area": "78.40 acres", "county": "Yakima", "lat": 46.812707, "lon": -121.440605, "starting": true, "overabundant": false}, {"name": "Cougar (King County)", "url": "https://wdfw.wa.gov/fishing/locations/high-lakes/cougar-king", "elevation": 4125.0, "area": "18.50 acres", "county": "King", "lat": 47.601629, "lon": -121.528861, "starting": false, "overabundant": false}, {"name": "Council Lake (Skamania County)", "url": "https://wdfw.wa.gov/fishing/locations/high-lakes/council-lake", "elevation": 4225.0, "area": "43.70 acres", "county": "Skamania", "lat": 46.266702, "lon": -121.629467, "starting": false, "overabundant": false}, {"name": "Coweeman", "url": "https://wdfw.wa.gov/fishing/locations/high-lakes/coweeman", "elevation": 2775.0, "area": "4.80 acres", "county": "Cowlitz", "lat": 46.139883, "lon": -122.463293, "starting": false, "overabundant": false}, {"name": "Coyote Lake", "url": "https://wdfw.wa.gov/fishing/locations/high-lakes/coyote", "elevation": 5148.0, "area": "3.50 acres", "county": "Lewis", "lat": 46.612655, "lon": -121.497149, "starting": false, "overabundant": false}, {"name": "Cradle", "url": "https://wdfw.wa.gov/fishing/locations/high-lakes/cradle", "elevation": 6181.0, "area": "7.40 acres", "county": "Chelan", "lat": 47.556121, "lon": -120.99467, "starting": false, "overabundant": false}, {"name": "Crag", "url": "https://wdfw.wa.gov/fishing/locations/high-lakes/crag", "elevation": 5024.0, "area": "6.30 acres", "county": "Yakima", "lat": 46.771929, "lon": -121.433483, "starting": false, "overabundant": false}, {"name": "Craig - Upper", "url": "https://wdfw.wa.gov/fishing/locations/high-lakes/craig-upper", "elevation": 4424.0, "area": "9.30 acres", "county": "Snohomish", "lat": 48.181294, "lon": -121.681978, "starting": false, "overabundant": false}, {"name": "Cramer", "url": "https://wdfw.wa.gov/fishing/locations/high-lakes/cramer", "elevation": 5029.0, "area": "17.70 acres", "county": "Yakima", "lat": 46.683668, "lon": -121.365869, "starting": false, "overabundant": false}, {"name": "Crater", "url": "https://wdfw.wa.gov/fishing/locations/high-lakes/crater", "elevation": 6869.0, "area": "10.80 acres", "county": "Okanogan", "lat": 48.22795, "lon": -120.33251, "starting": false, "overabundant": false}, {"name": "Crater (King County)", "url": "https://wdfw.wa.gov/fishing/locations/high-lakes/crater-king", "elevation": 3504.0, "area": "16.80 acres", "county": "King", "lat": 47.708343, "lon": -121.536592, "starting": false, "overabundant": false}, {"name": "Crater Lake Pothole", "url": "https://wdfw.wa.gov/fishing/locations/high-lakes/crater-lake-pothole", "elevation": 2816.0, "area": "0.30 acres", "county": "King", "lat": 47.698149, "lon": -121.540894, "starting": false, "overabundant": false}, {"name": "Crawford", "url": "https://wdfw.wa.gov/fishing/locations/high-lakes/crawford", "elevation": 5154.0, "area": "14.40 acres", "county": "King", "lat": 47.549571, "lon": -121.301521, "starting": false, "overabundant": false}, {"name": "Crescent", "url": "https://wdfw.wa.gov/fishing/locations/high-lakes/crescent", "elevation": 5464.0, "area": "2.20 acres", "county": "Chelan", "lat": 47.805352, "lon": -120.954693, "starting": false, "overabundant": false}, {"name": "Crescent - Upper", "url": "https://wdfw.wa.gov/fishing/locations/high-lakes/crescent-upper", "elevation": 5509.0, "area": "1.00 acres", "county": "Okanogan", "lat": 48.448212, "lon": -120.602539, "starting": false, "overabundant": false}, {"name": "Crosby", "url": "https://wdfw.wa.gov/fishing/locations/high-lakes/crosby", "elevation": 4513.0, "area": "1.40 acres", "county": "King", "lat": 47.722627, "lon": -121.497075, "starting": false, "overabundant": false}, {"name": "Crystal", "url": "https://wdfw.wa.gov/fishing/locations/high-lakes/crystal", "elevation": 7009.0, "area": "7.10 acres", "county": "Chelan", "lat": 47.47423, "lon": -120.802208, "starting": false, "overabundant": false}, {"name": "Crystal (King County)", "url": "https://wdfw.wa.gov/fishing/locations/high-lakes/crystal-king", "elevation": 4744.0, "area": "5.90 acres", "county": "King", "lat": 47.422233, "lon": -121.482407, "starting": false, "overabundant": false}, {"name": "Crystal (Okanogan County)", "url": "https://wdfw.wa.gov/fishing/locations/high-lakes/crystal-okanogan", "elevation": 7118.0, "area": "3.90 acres", "county": "Okanogan", "lat": 48.810095, "lon": -120.249545, "starting": false, "overabundant": false}, {"name": "Crystal 1", "url": "https://wdfw.wa.gov/fishing/locations/high-lakes/crystal-1", "elevation": 3478.0, "area": "3.20 acres", "county": "King", "lat": 47.680308, "lon": -121.468364, "starting": false, "overabundant": false}, {"name": "Cub", "url": "https://wdfw.wa.gov/fishing/locations/high-lakes/cub", "elevation": 5343.0, "area": "10.10 acres", "county": "Skagit", "lat": 48.305635, "lon": -121.091229, "starting": false, "overabundant": false}, {"name": "Cultus Lake (Skamania County)", "url": "https://wdfw.wa.gov/fishing/locations/high-lakes/cultus-skamania", "elevation": 5072.0, "area": "2.70 acres", "county": "Skamania", "lat": 46.02944, "lon": -121.773182, "starting": false, "overabundant": false}, {"name": "Cultus Lake (Snohomish County)", "url": "https://wdfw.wa.gov/fishing/locations/high-lakes/cultus", "elevation": 4310.0, "area": "1.40 acres", "county": "Snohomish", "lat": 47.978747, "lon": -121.402204, "starting": false, "overabundant": false}, {"name": "Cyclone", "url": "https://wdfw.wa.gov/fishing/locations/high-lakes/cyclone", "elevation": 5354.0, "area": "54.80 acres", "county": "Skagit", "lat": 48.415457, "lon": -121.258732, "starting": false, "overabundant": false}, {"name": "Cyclone Pot 1", "url": "https://wdfw.wa.gov/fishing/locations/high-lakes/cyclone-pot-1", "elevation": 5429.0, "area": "0.90 acres", "county": "Skagit", "lat": 48.418837, "lon": -121.254386, "starting": false, "overabundant": false}, {"name": "Cyclone Pot 2", "url": "https://wdfw.wa.gov/fishing/locations/high-lakes/cyclone-pot-2", "elevation": 5468.0, "area": "3.50 acres", "county": "Skagit", "lat": 48.420469, "lon": -121.25468, "starting": false, "overabundant": false}, {"name": "Dalles 1", "url": "https://wdfw.wa.gov/fishing/locations/high-lakes/dalles-1", "elevation": 4544.0, "area": "1.40 acres", "county": "Pierce", "lat": 47.083473, "lon": -121.545185, "starting": false, "overabundant": false}, {"name": "Dalles 2", "url": "https://wdfw.wa.gov/fishing/locations/high-lakes/dalles-2", "elevation": 4511.0, "area": "0.90 acres", "county": "Pierce", "lat": 47.083967, "lon": -121.550453, "starting": false, "overabundant": false}, {"name": "David", "url": "https://wdfw.wa.gov/fishing/locations/high-lakes/david", "elevation": 4622.0, "area": "1.90 acres", "county": "King", "lat": 47.633731, "lon": -121.235572, "starting": false, "overabundant": false}, {"name": "Deception Lakes", "url": "https://wdfw.wa.gov/fishing/locations/high-lakes/deception-lakes", "elevation": 5057.0, "area": "18.20 acres", "county": "King", "lat": 47.634804, "lon": -121.139732, "starting": true, "overabundant": false}, {"name": "Dee Lake (Skamania County)", "url": "https://wdfw.wa.gov/fishing/locations/high-lakes/dee", "elevation": 4296.0, "area": "2.70 acres", "county": "Skamania", "lat": 46.005344, "lon": -121.830099, "starting": false, "overabundant": false}, {"name": "Deep Lake (Kittitas County)", "url": "https://wdfw.wa.gov/fishing/locations/high-lakes/deep-lake-kittitas", "elevation": 4386.0, "area": "39.90 acres", "county": "Kittitas", "lat": 47.54655, "lon": -121.141979, "starting": true, "overabundant": false}, {"name": "Deep Lake (Skamania County)", "url": "https://wdfw.wa.gov/fishing/locations/high-lakes/deep", "elevation": 5103.0, "area": "5.50 acres", "county": "Skamania", "lat": 46.031815, "lon": -121.770026, "starting": false, "overabundant": false}, {"name": "Deer", "url": "https://wdfw.wa.gov/fishing/locations/high-lakes/deer", "elevation": 3587.0, "area": "40.10 acres", "county": "King", "lat": 47.57087, "lon": -121.400585, "starting": false, "overabundant": false}, {"name": "Deer 1", "url": "https://wdfw.wa.gov/fishing/locations/high-lakes/deer-1-kittitas", "elevation": 4580.0, "area": "2.70 acres", "county": "Kittitas", "lat": 47.534655, "lon": -121.141355, "starting": false, "overabundant": false}, {"name": "Deer Creek Pot 1", "url": "https://wdfw.wa.gov/fishing/locations/high-lakes/deer-creek-pot-1", "elevation": 4352.0, "area": "0.90 acres", "county": "Snohomish", "lat": 47.855037, "lon": -121.54974, "starting": false, "overabundant": false}, {"name": "Deer Lake (Skamania County)", "url": "https://wdfw.wa.gov/fishing/locations/high-lakes/deer-skamania", "elevation": 4824.0, "area": "5.20 acres", "county": "Skamania", "lat": 46.024172, "lon": -121.787427, "starting": false, "overabundant": false}, {"name": "Deer Lake (Yakima County)", "url": "https://wdfw.wa.gov/fishing/locations/high-lakes/deer-yakima", "elevation": 5229.0, "area": "12.30 acres", "county": "Yakima", "lat": 46.651058, "lon": -121.41098, "starting": false, "overabundant": false}, {"name": "Delia", "url": "https://wdfw.wa.gov/fishing/locations/high-lakes/delia", "elevation": 3357.0, "area": "1.30 acres", "county": "Skamania", "lat": 45.96123, "lon": -121.695812, "starting": false, "overabundant": false}, {"name": "Denny", "url": "https://wdfw.wa.gov/fishing/locations/high-lakes/denny", "elevation": 4384.0, "area": "13.70 acres", "county": "King", "lat": 47.422423, "lon": -121.471401, "starting": false, "overabundant": false}, {"name": "Devils", "url": "https://wdfw.wa.gov/fishing/locations/high-lakes/devils", "elevation": 3789.0, "area": "3.20 acres", "county": "Snohomish", "lat": 48.120329, "lon": -121.550719, "starting": false, "overabundant": false}, {"name": "Devils Slide", "url": "https://wdfw.wa.gov/fishing/locations/high-lakes/devils-slide", "elevation": 4400.0, "area": "2.20 acres", "county": "Kittitas", "lat": 46.977441, "lon": -121.003066, "starting": false, "overabundant": false}, {"name": "Devils Washbasin", "url": "https://wdfw.wa.gov/fishing/locations/high-lakes/devils-washbasin", "elevation": 6271.0, "area": "1.40 acres", "county": "Yakima", "lat": 46.521232, "lon": -121.369227, "starting": false, "overabundant": false}, {"name": "Diamond", "url": "https://wdfw.wa.gov/fishing/locations/high-lakes/diamond", "elevation": 5265.0, "area": "9.50 acres", "county": "Snohomish", "lat": 48.181921, "lon": -121.244543, "starting": false, "overabundant": false}, {"name": "Diamond (Kittitas County)", "url": "https://wdfw.wa.gov/fishing/locations/high-lakes/diamond-kittitas", "elevation": 4950.0, "area": "4.70 acres", "county": "Kittitas", "lat": 47.442766, "lon": -121.161451, "starting": false, "overabundant": false}, {"name": "Dick", "url": "https://wdfw.wa.gov/fishing/locations/high-lakes/dick", "elevation": 3355.0, "area": "1.00 acres", "county": "Snohomish", "lat": 47.848387, "lon": -121.471922, "starting": false, "overabundant": false}, {"name": "Die Hard 1 Lake", "url": "https://wdfw.wa.gov/fishing/locations/high-lakes/die-hard-1", "elevation": 5181.0, "area": "1.40 acres", "county": "Lewis", "lat": 46.531652, "lon": -121.557607, "starting": false, "overabundant": false}, {"name": "Die Hard 2 Lake", "url": "https://wdfw.wa.gov/fishing/locations/high-lakes/die-hard-2", "elevation": 5147.0, "area": "2.20 acres", "county": "Lewis", "lat": 46.530155, "lon": -121.553182, "starting": false, "overabundant": false}, {"name": "Diobsud - E'most", "url": "https://wdfw.wa.gov/fishing/locations/high-lakes/diobsud-emost", "elevation": 4014.0, "area": "3.00 acres", "county": "Whatcom", "lat": 48.645894, "lon": -121.537648, "starting": false, "overabundant": false}, {"name": "Diobsud - Middle", "url": "https://wdfw.wa.gov/fishing/locations/high-lakes/diobsud-middle", "elevation": 4430.0, "area": "3.80 acres", "county": "Whatcom", "lat": 48.648805, "lon": -121.542977, "starting": false, "overabundant": false}, {"name": "Discovery", "url": "https://wdfw.wa.gov/fishing/locations/high-lakes/discovery", "elevation": 3788.0, "area": "1.40 acres", "county": "Grays Harbor", "lat": 47.513022, "lon": -123.567563, "starting": false, "overabundant": false}, {"name": "Divide", "url": "https://wdfw.wa.gov/fishing/locations/high-lakes/divide", "elevation": 3873.0, "area": "2.20 acres", "county": "Kittitas", "lat": 47.400907, "lon": -121.42754, "starting": false, "overabundant": false}, {"name": "Dog Lake", "url": "https://wdfw.wa.gov/fishing/locations/high-lakes/dog-lake", "elevation": 4211.0, "area": "59.90 acres", "county": "Yakima", "lat": 46.657375, "lon": -121.359731, "starting": true, "overabundant": false}, {"name": "Dollar - Lower", "url": "https://wdfw.wa.gov/fishing/locations/high-lakes/dollar-lower", "elevation": 3868.0, "area": "1.80 acres", "county": "Snohomish", "lat": 47.862342, "lon": -121.558986, "starting": false, "overabundant": false}, {"name": "Dollar - Upper", "url": "https://wdfw.wa.gov/fishing/locations/high-lakes/dollar-upper", "elevation": 3947.0, "area": "5.50 acres", "county": "Snohomish", "lat": 47.860375, "lon": -121.556935, "starting": false, "overabundant": false}, {"name": "Dollar Lakes Pot 1", "url": "https://wdfw.wa.gov/fishing/locations/high-lakes/dollar-lakes-pot-1", "elevation": 4596.0, "area": "0.50 acres", "county": "Snohomish", "lat": 47.857076, "lon": -121.562406, "starting": false, "overabundant": false}, {"name": "Dollar Lakes Pot 2", "url": "https://wdfw.wa.gov/fishing/locations/high-lakes/dollar-lakes-pot-2", "elevation": 4594.0, "area": "0.40 acres", "county": "Snohomish", "lat": 47.856559, "lon": -121.561227, "starting": false, "overabundant": false}, {"name": "Donald", "url": "https://wdfw.wa.gov/fishing/locations/high-lakes/donald", "elevation": 5875.0, "area": "11.60 acres", "county": "Chelan", "lat": 47.735099, "lon": -120.890492, "starting": false, "overabundant": false}, {"name": "Doreen - Pothole", "url": "https://wdfw.wa.gov/fishing/locations/high-lakes/doreen-pothole", "elevation": 4236.0, "area": "1.90 acres", "county": "Whatcom", "lat": 48.707582, "lon": -121.904977, "starting": false, "overabundant": false}, {"name": "Doris", "url": "https://wdfw.wa.gov/fishing/locations/high-lakes/doris", "elevation": 6991.0, "area": "3.20 acres", "county": "Okanogan", "lat": 48.822247, "lon": -120.591636, "starting": false, "overabundant": false}, {"name": "Dorothy Lake", "url": "https://wdfw.wa.gov/fishing/locations/high-lakes/dorothy-lake", "elevation": 3062.0, "area": "260.90 acres", "county": "King", "lat": 47.579806, "lon": -121.38593, "starting": true, "overabundant": false}, {"name": "Dow", "url": "https://wdfw.wa.gov/fishing/locations/high-lakes/dow", "elevation": 4750.0, "area": "3.00 acres", "county": "Snohomish", "lat": 47.801071, "lon": -121.096466, "starting": false, "overabundant": false}, {"name": "Downey", "url": "https://wdfw.wa.gov/fishing/locations/high-lakes/downey", "elevation": 5412.0, "area": "12.60 acres", "county": "Snohomish", "lat": 48.289236, "lon": -121.155896, "starting": false, "overabundant": false}, {"name": "Dream", "url": "https://wdfw.wa.gov/fishing/locations/high-lakes/dream", "elevation": 3455.0, "area": "33.20 acres", "county": "King", "lat": 47.600017, "lon": -121.436794, "starting": false, "overabundant": false}, {"name": "Dry Creek Beaver Pond (Skamania County)", "url": "https://wdfw.wa.gov/fishing/locations/high-lakes/dry-creek-beaver-pond", "elevation": 3793.0, "area": "1.30 acres", "county": "Skamania", "lat": 45.966439, "lon": -121.767184, "starting": false, "overabundant": false}, {"name": "Duffey 1", "url": "https://wdfw.wa.gov/fishing/locations/high-lakes/duffey-1", "elevation": 2980.0, "area": "1.90 acres", "county": "Snohomish", "lat": 47.800309, "lon": -121.687035, "starting": false, "overabundant": false}, {"name": "Duffey 2", "url": "https://wdfw.wa.gov/fishing/locations/high-lakes/duffey-2", "elevation": 3179.0, "area": "3.30 acres", "county": "Snohomish", "lat": 47.796274, "lon": -121.688713, "starting": false, "overabundant": false}, {"name": "Dumbbell Lake", "url": "https://wdfw.wa.gov/fishing/locations/high-lakes/dumbbell", "elevation": 5095.0, "area": "38.10 acres", "county": "Lewis", "lat": 46.691918, "lon": -121.380312, "starting": false, "overabundant": false}, {"name": "Eagle - Upper", "url": "https://wdfw.wa.gov/fishing/locations/high-lakes/eagle-upper", "elevation": 7115.0, "area": "15.10 acres", "county": "Okanogan", "lat": 48.213553, "lon": -120.346815, "starting": false, "overabundant": false}, {"name": "East", "url": "https://wdfw.wa.gov/fishing/locations/high-lakes/east", "elevation": 3958.0, "area": "3.50 acres", "county": "Pierce", "lat": 47.01689, "lon": -121.837856, "starting": false, "overabundant": false}, {"name": "Edds", "url": "https://wdfw.wa.gov/fishing/locations/high-lakes/edds", "elevation": 4302.0, "area": "24.10 acres", "county": "King", "lat": 47.471798, "lon": -121.34821, "starting": false, "overabundant": false}, {"name": "Edgar", "url": "https://wdfw.wa.gov/fishing/locations/high-lakes/edgar", "elevation": 3267.0, "area": "2.90 acres", "county": "Skagit", "lat": 48.624791, "lon": -121.594787, "starting": false, "overabundant": false}, {"name": "Edna", "url": "https://wdfw.wa.gov/fishing/locations/high-lakes/edna", "elevation": 6755.0, "area": "1.80 acres", "county": "Chelan", "lat": 47.657063, "lon": -120.912157, "starting": false, "overabundant": false}, {"name": "Eightmile", "url": "https://wdfw.wa.gov/fishing/locations/high-lakes/eightmile", "elevation": 4645.0, "area": "63.00 acres", "county": "Chelan", "lat": 47.520336, "lon": -120.865256, "starting": false, "overabundant": false}, {"name": "Elbow", "url": "https://wdfw.wa.gov/fishing/locations/high-lakes/elbow", "elevation": 3382.0, "area": "4.90 acres", "county": "Whatcom", "lat": 48.709997, "lon": -121.914935, "starting": false, "overabundant": false}, {"name": "Elizabeth", "url": "https://wdfw.wa.gov/fishing/locations/high-lakes/elizabeth", "elevation": 5842.0, "area": "2.60 acres", "county": "Pierce", "lat": 46.920785, "lon": -121.497065, "starting": false, "overabundant": false}, {"name": "Elk Lake (Skamania County)", "url": "https://wdfw.wa.gov/fishing/locations/high-lakes/elk-skamania-1", "elevation": 4689.0, "area": "12.50 acres", "county": "Skamania", "lat": 46.021834, "lon": -121.795763, "starting": false, "overabundant": false}, {"name": "Elk Lake (Skamania County)", "url": "https://wdfw.wa.gov/fishing/locations/high-lakes/elk-skamania", "elevation": 3973.0, "area": "27.30 acres", "county": "Skamania", "lat": 46.335203, "lon": -122.235863, "starting": false, "overabundant": false}, {"name": "Ellinor Lake", "url": "https://wdfw.wa.gov/fishing/locations/high-lakes/ellinor-lake", "elevation": 3890.0, "area": "5.60 acres", "county": "Mason", "lat": 47.534723, "lon": -123.258589, "starting": false, "overabundant": false}, {"name": "Emerald (Snohomish County)", "url": "https://wdfw.wa.gov/fishing/locations/high-lakes/emerald-snohomish", "elevation": 5140.0, "area": "11.90 acres", "county": "Snohomish", "lat": 48.187988, "lon": -121.252315, "starting": false, "overabundant": false}, {"name": "Enchantment 1 (Temple)", "url": "https://wdfw.wa.gov/fishing/locations/high-lakes/enchantment-1-temple", "elevation": 6875.0, "area": "4.40 acres", "county": "Chelan", "lat": 47.484912, "lon": -120.778883, "starting": false, "overabundant": false}, {"name": "Enchantment 10 (Isolation)", "url": "https://wdfw.wa.gov/fishing/locations/high-lakes/enchantment-10-isolation", "elevation": 7704.0, "area": "19.80 acres", "county": "Chelan", "lat": 47.47721, "lon": -120.819552, "starting": false, "overabundant": false}, {"name": "Enchantment 9 (Tranquil)", "url": "https://wdfw.wa.gov/fishing/locations/high-lakes/enchantment-9-tranquil", "elevation": 7800.0, "area": "1.50 acres", "county": "Chelan", "lat": 47.481031, "lon": -120.817995, "starting": false, "overabundant": false}, {"name": "Enchantment No 8", "url": "https://wdfw.wa.gov/fishing/locations/high-lakes/enchantment-no-8", "elevation": 7714.0, "area": "2.60 acres", "county": "Chelan", "lat": 47.479236, "lon": -120.817008, "starting": false, "overabundant": false}, {"name": "Enjar", "url": "https://wdfw.wa.gov/fishing/locations/high-lakes/enjar", "elevation": 4325.0, "area": "12.40 acres", "county": "Skagit", "lat": 48.424219, "lon": -121.302429, "starting": false, "overabundant": false}, {"name": "Eric", "url": "https://wdfw.wa.gov/fishing/locations/high-lakes/eric", "elevation": 5180.0, "area": "0.30 acres", "county": "King", "lat": 47.775124, "lon": -121.607077, "starting": false, "overabundant": false}, {"name": "Ethel", "url": "https://wdfw.wa.gov/fishing/locations/high-lakes/ethel", "elevation": 5504.0, "area": "15.30 acres", "county": "Chelan", "lat": 47.75048, "lon": -120.888462, "starting": false, "overabundant": false}, {"name": "Eunice Lake (Skamania County)", "url": "https://wdfw.wa.gov/fishing/locations/high-lakes/eunice", "elevation": 4316.0, "area": "4.80 acres", "county": "Skamania", "lat": 46.00508, "lon": -121.824783, "starting": false, "overabundant": false}, {"name": "Evan", "url": "https://wdfw.wa.gov/fishing/locations/high-lakes/evan", "elevation": 2766.0, "area": "10.90 acres", "county": "Snohomish", "lat": 48.0311, "lon": -121.687549, "starting": false, "overabundant": false}, {"name": "Excelsior Creek Pot 1", "url": "https://wdfw.wa.gov/fishing/locations/high-lakes/excelsior-creek-pot-1", "elevation": 4057.0, "area": "0.40 acres", "county": "Snohomish", "lat": 47.885073, "lon": -121.510549, "starting": false, "overabundant": false}, {"name": "Falls - Lower", "url": "https://wdfw.wa.gov/fishing/locations/high-lakes/falls-lower", "elevation": 4034.0, "area": "59.80 acres", "county": "Skagit", "lat": 48.464307, "lon": -121.395772, "starting": false, "overabundant": false}, {"name": "Fawn", "url": "https://wdfw.wa.gov/fishing/locations/high-lakes/fawn", "elevation": 6235.0, "area": "5.90 acres", "county": "Okanogan", "lat": 48.890798, "lon": -120.291474, "starting": false, "overabundant": false}, {"name": "Feldspar", "url": "https://wdfw.wa.gov/fishing/locations/high-lakes/feldspar", "elevation": 4654.0, "area": "3.10 acres", "county": "Snohomish", "lat": 48.265665, "lon": -121.073024, "starting": false, "overabundant": false}, {"name": "Fern", "url": "https://wdfw.wa.gov/fishing/locations/high-lakes/fern", "elevation": 5033.0, "area": "1.00 acres", "county": "Snohomish", "lat": 48.120295, "lon": -121.272829, "starting": false, "overabundant": false}, {"name": "Fireweed Lk 1", "url": "https://wdfw.wa.gov/fishing/locations/high-lakes/fireweed-lk-1", "elevation": 4070.0, "area": "1.60 acres", "county": "Kittitas", "lat": 47.324467, "lon": -121.396653, "starting": false, "overabundant": false}, {"name": "Fireweed Lk 2", "url": "https://wdfw.wa.gov/fishing/locations/high-lakes/fireweed-lk-2", "elevation": 4070.0, "area": "0.90 acres", "county": "Kittitas", "lat": 47.323159, "lon": -121.396439, "starting": false, "overabundant": false}, {"name": "Firn", "url": "https://wdfw.wa.gov/fishing/locations/high-lakes/firn", "elevation": 5476.0, "area": "4.50 acres", "county": "Whatcom", "lat": 48.833075, "lon": -121.153278, "starting": false, "overabundant": false}, {"name": "Fish", "url": "https://wdfw.wa.gov/fishing/locations/high-lakes/fish", "elevation": 3348.0, "area": "1.70 acres", "county": "Yakima", "lat": 46.618227, "lon": -121.119997, "starting": false, "overabundant": false}, {"name": "Fish Lake Little (Skamania County)", "url": "https://wdfw.wa.gov/fishing/locations/high-lakes/fish-little", "elevation": 3554.0, "area": "3.60 acres", "county": "Skamania", "lat": 46.155452, "lon": -121.701643, "starting": false, "overabundant": false}, {"name": "Fisher Lake", "url": "https://wdfw.wa.gov/fishing/locations/high-lakes/fisher-lake", "elevation": 4767.0, "area": "56.40 acres", "county": "King", "lat": 47.638719, "lon": -121.219739, "starting": true, "overabundant": false}, {"name": "Fisher Peak", "url": "https://wdfw.wa.gov/fishing/locations/high-lakes/fisher-peak", "elevation": 5438.0, "area": "1.40 acres", "county": "Skagit", "lat": 48.552629, "lon": -120.810809, "starting": false, "overabundant": false}, {"name": "Fizrenken Lake", "url": "https://wdfw.wa.gov/fishing/locations/high-lakes/fizrenken", "elevation": 3907.0, "area": "0.70 acres", "county": "Lewis", "lat": 46.73182, "lon": -121.805108, "starting": false, "overabundant": false}, {"name": "Flatiron", "url": "https://wdfw.wa.gov/fishing/locations/high-lakes/flatiron", "elevation": 5595.0, "area": "6.10 acres", "county": "Yakima", "lat": 46.88851, "lon": -121.194221, "starting": false, "overabundant": false}, {"name": "Flora", "url": "https://wdfw.wa.gov/fishing/locations/high-lakes/flora", "elevation": 5715.0, "area": "5.40 acres", "county": "Chelan", "lat": 47.6692, "lon": -120.914766, "starting": false, "overabundant": false}, {"name": "Florence - Lower", "url": "https://wdfw.wa.gov/fishing/locations/high-lakes/florence-lower", "elevation": 5795.0, "area": "1.60 acres", "county": "Chelan", "lat": 47.65373, "lon": -120.939306, "starting": false, "overabundant": false}, {"name": "Florence - Upper", "url": "https://wdfw.wa.gov/fishing/locations/high-lakes/florence-upper", "elevation": 6508.0, "area": "2.40 acres", "county": "Chelan", "lat": 47.657074, "lon": -120.935226, "starting": false, "overabundant": false}, {"name": "Fly", "url": "https://wdfw.wa.gov/fishing/locations/high-lakes/fly", "elevation": 4627.0, "area": "0.90 acres", "county": "Skagit", "lat": 48.479442, "lon": -121.296485, "starting": false, "overabundant": false}, {"name": "Foggy", "url": "https://wdfw.wa.gov/fishing/locations/high-lakes/foggy", "elevation": 5224.0, "area": "17.90 acres", "county": "Snohomish", "lat": 47.983981, "lon": -121.467287, "starting": false, "overabundant": false}, {"name": "Forest", "url": "https://wdfw.wa.gov/fishing/locations/high-lakes/forest", "elevation": 3952.0, "area": "3.00 acres", "county": "Pierce", "lat": 47.089366, "lon": -121.510011, "starting": false, "overabundant": false}, {"name": "Fortune Ponds 1", "url": "https://wdfw.wa.gov/fishing/locations/high-lakes/fortune-ponds-1", "elevation": 4909.0, "area": "1.50 acres", "county": "Snohomish", "lat": 47.884083, "lon": -121.183515, "starting": false, "overabundant": false}, {"name": "Fortune Ponds 2", "url": "https://wdfw.wa.gov/fishing/locations/high-lakes/fortune-ponds-2", "elevation": 4678.0, "area": "0.90 acres", "county": "Snohomish", "lat": 47.886282, "lon": -121.184009, "starting": false, "overabundant": false}, {"name": "Foss", "url": "https://wdfw.wa.gov/fishing/locations/high-lakes/foss", "elevation": 4640.0, "area": "4.90 acres", "county": "Skagit", "lat": 48.477105, "lon": -121.364183, "starting": false, "overabundant": false}, {"name": "Fourth Of July", "url": "https://wdfw.wa.gov/fishing/locations/high-lakes/fourth-of-july", "elevation": 4387.0, "area": "1.30 acres", "county": "Snohomish", "lat": 47.806546, "lon": -121.390759, "starting": false, "overabundant": false}, {"name": "Fox - Upper", "url": "https://wdfw.wa.gov/fishing/locations/high-lakes/fox-upper", "elevation": 6794.0, "area": "4.70 acres", "county": "Okanogan", "lat": 48.863926, "lon": -120.302167, "starting": false, "overabundant": false}, {"name": "Francis", "url": "https://wdfw.wa.gov/fishing/locations/high-lakes/francis", "elevation": 4293.0, "area": "36.90 acres", "county": "King", "lat": 47.636073, "lon": -121.420718, "starting": false, "overabundant": false}, {"name": "Freds", "url": "https://wdfw.wa.gov/fishing/locations/high-lakes/freds", "elevation": 6507.0, "area": "5.20 acres", "county": "Okanogan", "lat": 48.822876, "lon": -120.598244, "starting": false, "overabundant": false}, {"name": "Freezeout", "url": "https://wdfw.wa.gov/fishing/locations/high-lakes/freezeout", "elevation": 5710.0, "area": "6.10 acres", "county": "Whatcom", "lat": 48.926145, "lon": -120.904201, "starting": false, "overabundant": false}, {"name": "French Potholes - Upper", "url": "https://wdfw.wa.gov/fishing/locations/high-lakes/french-potholes-upper", "elevation": 5716.0, "area": "3.80 acres", "county": "Chelan", "lat": 47.568263, "lon": -121.084437, "starting": false, "overabundant": false}, {"name": "Frog", "url": "https://wdfw.wa.gov/fishing/locations/high-lakes/frog", "elevation": 3544.0, "area": "0.70 acres", "county": "Kittitas", "lat": 47.384338, "lon": -121.42942, "starting": false, "overabundant": false}, {"name": "Frog Pothole", "url": "https://wdfw.wa.gov/fishing/locations/high-lakes/frog-pothole", "elevation": 3596.0, "area": "0.20 acres", "county": "Kittitas", "lat": 47.385101, "lon": -121.430489, "starting": false, "overabundant": false}, {"name": "Frosty", "url": "https://wdfw.wa.gov/fishing/locations/high-lakes/frosty", "elevation": 5356.0, "area": "3.30 acres", "county": "Okanogan", "lat": 48.961113, "lon": -120.745147, "starting": false, "overabundant": false}, {"name": "Frying Pan Lake", "url": "https://wdfw.wa.gov/fishing/locations/high-lakes/fryingpan", "elevation": 4818.0, "area": "20.70 acres", "county": "Lewis", "lat": 46.732304, "lon": -121.418749, "starting": false, "overabundant": false}, {"name": "Gallaher Head", "url": "https://wdfw.wa.gov/fishing/locations/high-lakes/gallaher-head", "elevation": 5627.0, "area": "2.90 acres", "county": "Kittitas", "lat": 47.442861, "lon": -120.978167, "starting": false, "overabundant": false}, {"name": "Garfield Mtn - Lower", "url": "https://wdfw.wa.gov/fishing/locations/high-lakes/garfield-mtn-lower", "elevation": 3626.0, "area": "6.10 acres", "county": "King", "lat": 47.554997, "lon": -121.478371, "starting": false, "overabundant": false}, {"name": "Gee Point", "url": "https://wdfw.wa.gov/fishing/locations/high-lakes/gee-point", "elevation": 4106.0, "area": "3.00 acres", "county": "Skagit", "lat": 48.424465, "lon": -121.819949, "starting": false, "overabundant": false}, {"name": "George", "url": "https://wdfw.wa.gov/fishing/locations/high-lakes/george", "elevation": 5463.0, "area": "1.60 acres", "county": "Pierce", "lat": 47.048763, "lon": -121.491015, "starting": false, "overabundant": false}, {"name": "Georges", "url": "https://wdfw.wa.gov/fishing/locations/high-lakes/georges", "elevation": 5035.0, "area": "0.40 acres", "county": "King", "lat": 47.526801, "lon": -121.335008, "starting": false, "overabundant": false}, {"name": "Ginnette", "url": "https://wdfw.wa.gov/fishing/locations/high-lakes/ginnette", "elevation": 5422.0, "area": "0.80 acres", "county": "Yakima", "lat": 46.62746, "lon": -121.375476, "starting": false, "overabundant": false}, {"name": "Glacier Lake (King County)", "url": "https://wdfw.wa.gov/fishing/locations/high-lakes/glacier-lake", "elevation": 4810.0, "area": "50.20 acres", "county": "King", "lat": 47.657111, "lon": -121.144188, "starting": true, "overabundant": false}, {"name": "Glacier Lake (Kittitas County)", "url": "https://wdfw.wa.gov/fishing/locations/high-lakes/glacier", "elevation": 4744.0, "area": "20.20 acres", "county": "Kittitas", "lat": 47.467546, "lon": -121.296072, "starting": false, "overabundant": false}, {"name": "Glacier Lake (Lewis County)", "url": "https://wdfw.wa.gov/fishing/locations/high-lakes/glacier-lewis", "elevation": 2909.0, "area": "30.60 acres", "county": "Lewis", "lat": 46.550129, "lon": -121.583027, "starting": false, "overabundant": false}, {"name": "Glasses", "url": "https://wdfw.wa.gov/fishing/locations/high-lakes/glasses", "elevation": 4632.0, "area": "22.20 acres", "county": "Chelan", "lat": 47.842054, "lon": -121.12579, "starting": false, "overabundant": false}, {"name": "Gloria", "url": "https://wdfw.wa.gov/fishing/locations/high-lakes/gloria", "elevation": 5812.0, "area": "5.90 acres", "county": "Snohomish", "lat": 48.28843, "lon": -121.166868, "starting": false, "overabundant": false}, {"name": "Goat (Jefferson County)", "url": "https://wdfw.wa.gov/fishing/locations/high-lakes/goat-jefferson", "elevation": 5943.0, "area": "7.30 acres", "county": "Jefferson", "lat": 47.839487, "lon": -123.189079, "starting": false, "overabundant": false}, {"name": "Goat (King County)", "url": "https://wdfw.wa.gov/fishing/locations/high-lakes/goat-king", "elevation": 4100.0, "area": "20.50 acres", "county": "King", "lat": 47.539185, "lon": -121.420521, "starting": false, "overabundant": false}, {"name": "Goblin", "url": "https://wdfw.wa.gov/fishing/locations/high-lakes/goblin", "elevation": 4269.0, "area": "32.80 acres", "county": "Snohomish", "lat": 47.965821, "lon": -121.317994, "starting": false, "overabundant": false}, {"name": "Gold", "url": "https://wdfw.wa.gov/fishing/locations/high-lakes/gold", "elevation": 4785.0, "area": "3.60 acres", "county": "Kittitas", "lat": 47.407431, "lon": -121.35, "starting": false, "overabundant": false}, {"name": "Gold Hill 1", "url": "https://wdfw.wa.gov/fishing/locations/high-lakes/gold-hill-1", "elevation": 5640.0, "area": "3.20 acres", "county": "Yakima", "lat": 46.935997, "lon": -121.385107, "starting": false, "overabundant": false}, {"name": "Goober Pond", "url": "https://wdfw.wa.gov/fishing/locations/high-lakes/goober-pond", "elevation": 3095.0, "area": "0.90 acres", "county": "Mason", "lat": 47.559206, "lon": -123.214996, "starting": false, "overabundant": false}, {"name": "Goose Lake", "url": "https://wdfw.wa.gov/fishing/locations/high-lakes/goose-lake", "elevation": 3110.0, "area": "73.60 acres", "county": "Skamania", "lat": 45.941185, "lon": -121.764446, "starting": true, "overabundant": false}, {"name": "Goose Lake (Lewis County)", "url": "https://wdfw.wa.gov/fishing/locations/high-lakes/goose", "elevation": 2866.0, "area": "8.20 acres", "county": "Lewis", "lat": 46.668958, "lon": -122.327048, "starting": false, "overabundant": false}, {"name": "Gordon", "url": "https://wdfw.wa.gov/fishing/locations/high-lakes/gordon", "elevation": 3002.0, "area": "2.20 acres", "county": "Skagit", "lat": 48.390115, "lon": -122.110459, "starting": false, "overabundant": false}, {"name": "Grace - Upper", "url": "https://wdfw.wa.gov/fishing/locations/high-lakes/grace-upper", "elevation": 6913.0, "area": "2.50 acres", "county": "Chelan", "lat": 47.690164, "lon": -120.931821, "starting": false, "overabundant": false}, {"name": "Granite - Lower", "url": "https://wdfw.wa.gov/fishing/locations/high-lakes/granite-lower", "elevation": 2944.0, "area": "9.00 acres", "county": "King", "lat": 47.455126, "lon": -121.615534, "starting": false, "overabundant": false}, {"name": "Granite - Upper", "url": "https://wdfw.wa.gov/fishing/locations/high-lakes/granite-upper", "elevation": 3054.0, "area": "14.70 acres", "county": "King", "lat": 47.450991, "lon": -121.610749, "starting": false, "overabundant": false}, {"name": "Granite 2 Lake (Skagit County)", "url": "https://wdfw.wa.gov/fishing/locations/high-lakes/granite-2", "elevation": 4192.0, "area": "5.30 acres", "county": "Skagit", "lat": 48.469199, "lon": -121.32965, "starting": false, "overabundant": false}, {"name": "Granite 5", "url": "https://wdfw.wa.gov/fishing/locations/high-lakes/granite-5", "elevation": 5550.0, "area": "2.00 acres", "county": "Skagit", "lat": 48.469603, "lon": -121.301871, "starting": false, "overabundant": false}, {"name": "Granite Lake (Lewis County)", "url": "https://wdfw.wa.gov/fishing/locations/high-lakes/granite-lake", "elevation": 4179.0, "area": "26.70 acres", "county": "Lewis", "lat": 46.696858, "lon": -121.926074, "starting": true, "overabundant": false}, {"name": "Granite Lake (Skagit County)", "url": "https://wdfw.wa.gov/fishing/locations/high-lakes/granite", "elevation": 3499.0, "area": "13.60 acres", "county": "Skagit", "lat": 48.348409, "lon": -121.842897, "starting": false, "overabundant": false}, {"name": "Granite Mountain Pothole 1", "url": "https://wdfw.wa.gov/fishing/locations/high-lakes/granite-mountain-pothole-1", "elevation": 5990.0, "area": "4.40 acres", "county": "Chelan", "lat": 47.593922, "lon": -121.104776, "starting": false, "overabundant": false}, {"name": "Granite Mountain Pothole 2", "url": "https://wdfw.wa.gov/fishing/locations/high-lakes/granite-mountain-pothole-2", "elevation": 6034.0, "area": "2.30 acres", "county": "Chelan", "lat": 47.592856, "lon": -121.106132, "starting": false, "overabundant": false}, {"name": "Granite Mountain Pothole 3", "url": "https://wdfw.wa.gov/fishing/locations/high-lakes/granite-mountain-pothole-3", "elevation": 6315.0, "area": "1.50 acres", "county": "Chelan", "lat": 47.593185, "lon": -121.10931, "starting": false, "overabundant": false}, {"name": "Gravel", "url": "https://wdfw.wa.gov/fishing/locations/high-lakes/gravel", "elevation": 5123.0, "area": "8.00 acres", "county": "King", "lat": 47.465117, "lon": -121.369402, "starting": false, "overabundant": false}, {"name": "Green", "url": "https://wdfw.wa.gov/fishing/locations/high-lakes/green", "elevation": 5905.0, "area": "6.60 acres", "county": "Yakima", "lat": 46.549697, "lon": -121.17112, "starting": false, "overabundant": false}, {"name": "Green Drop 2", "url": "https://wdfw.wa.gov/fishing/locations/high-lakes/green-drop-2", "elevation": 5514.0, "area": "1.20 acres", "county": "Whatcom", "lat": 48.950349, "lon": -121.690953, "starting": false, "overabundant": false}, {"name": "Grotto", "url": "https://wdfw.wa.gov/fishing/locations/high-lakes/grotto", "elevation": 3826.0, "area": "4.60 acres", "county": "King", "lat": 47.764215, "lon": -121.401184, "starting": false, "overabundant": false}, {"name": "Grouse (Mud)", "url": "https://wdfw.wa.gov/fishing/locations/high-lakes/grouse-mud", "elevation": 4720.0, "area": "2.20 acres", "county": "Snohomish", "lat": 47.821673, "lon": -121.125543, "starting": false, "overabundant": false}, {"name": "Gulch 1", "url": "https://wdfw.wa.gov/fishing/locations/high-lakes/gulch-1", "elevation": 3669.0, "area": "1.60 acres", "county": "Snohomish", "lat": 47.939942, "lon": -121.454114, "starting": false, "overabundant": false}, {"name": "Gunn", "url": "https://wdfw.wa.gov/fishing/locations/high-lakes/gunn", "elevation": 4774.0, "area": "5.40 acres", "county": "Snohomish", "lat": 47.81511, "lon": -121.457273, "starting": false, "overabundant": false}, {"name": "Hager Lake", "url": "https://wdfw.wa.gov/fishing/locations/high-lakes/hager", "elevation": 2936.0, "area": "1.10 acres", "county": "Lewis", "lat": 46.577851, "lon": -121.636095, "starting": false, "overabundant": false}, {"name": "Halcyon", "url": "https://wdfw.wa.gov/fishing/locations/high-lakes/halcyon", "elevation": 3279.0, "area": "5.40 acres", "county": "Snohomish", "lat": 47.810466, "lon": -121.709963, "starting": false, "overabundant": false}, {"name": "Halfcan", "url": "https://wdfw.wa.gov/fishing/locations/high-lakes/halfcan", "elevation": 4592.0, "area": "1.20 acres", "county": "Skagit", "lat": 48.376838, "lon": -121.09727, "starting": false, "overabundant": false}, {"name": "Hall Peak", "url": "https://wdfw.wa.gov/fishing/locations/high-lakes/hall-peak", "elevation": 3429.0, "area": "0.90 acres", "county": "Snohomish", "lat": 48.068433, "lon": -121.538586, "starting": false, "overabundant": false}, {"name": "Hamada", "url": "https://wdfw.wa.gov/fishing/locations/high-lakes/hamada", "elevation": 4266.0, "area": "0.80 acres", "county": "King", "lat": 47.689517, "lon": -121.128737, "starting": false, "overabundant": false}, {"name": "Hanaford", "url": "https://wdfw.wa.gov/fishing/locations/high-lakes/hanaford", "elevation": 4064.0, "area": "21.70 acres", "county": "Skamania", "lat": 46.328631, "lon": -122.233143, "starting": false, "overabundant": false}, {"name": "Hanks", "url": "https://wdfw.wa.gov/fishing/locations/high-lakes/hanks", "elevation": 3707.0, "area": "2.30 acres", "county": "King", "lat": 47.295645, "lon": -121.432353, "starting": false, "overabundant": false}, {"name": "Harris", "url": "https://wdfw.wa.gov/fishing/locations/high-lakes/harris", "elevation": 3695.0, "area": "2.40 acres", "county": "King", "lat": 47.377324, "lon": -121.588464, "starting": false, "overabundant": false}, {"name": "Harry", "url": "https://wdfw.wa.gov/fishing/locations/high-lakes/harry", "elevation": 3349.0, "area": "1.00 acres", "county": "Snohomish", "lat": 47.847209, "lon": -121.463969, "starting": false, "overabundant": false}, {"name": "Harty Lake (Skamania County)", "url": "https://wdfw.wa.gov/fishing/locations/high-lakes/harty", "elevation": 4596.0, "area": "2.20 acres", "county": "Skamania", "lat": 45.974329, "lon": -121.786967, "starting": false, "overabundant": false}, {"name": "Hawkeye", "url": "https://wdfw.wa.gov/fishing/locations/high-lakes/hawkeye", "elevation": 4986.0, "area": "6.00 acres", "county": "Whatcom", "lat": 48.863818, "lon": -121.711314, "starting": false, "overabundant": false}, {"name": "Hawkins", "url": "https://wdfw.wa.gov/fishing/locations/high-lakes/hawkins", "elevation": 3552.0, "area": "2.10 acres", "county": "Skagit", "lat": 48.335805, "lon": -121.753606, "starting": false, "overabundant": false}, {"name": "Hayes", "url": "https://wdfw.wa.gov/fishing/locations/high-lakes/hayes", "elevation": 4782.0, "area": "12.40 acres", "county": "Whatcom", "lat": 48.857338, "lon": -121.721621, "starting": true, "overabundant": false}, {"name": "Heart", "url": "https://wdfw.wa.gov/fishing/locations/high-lakes/heart", "elevation": 4052.0, "area": "14.10 acres", "county": "Skagit", "lat": 48.643586, "lon": -121.928175, "starting": false, "overabundant": false}, {"name": "Heart - Big", "url": "https://wdfw.wa.gov/fishing/locations/high-lakes/heart-big", "elevation": 4549.0, "area": "175.90 acres", "county": "King", "lat": 47.579003, "lon": -121.324914, "starting": false, "overabundant": false}, {"name": "Heather Lake (Chelan County)", "url": "https://wdfw.wa.gov/fishing/locations/high-lakes/heather-lake", "elevation": 3957.0, "area": "83.80 acres", "county": "Chelan", "lat": 47.855505, "lon": -121.1309, "starting": true, "overabundant": false}, {"name": "Heather Lake (Skamania County)", "url": "https://wdfw.wa.gov/fishing/locations/high-lakes/heather", "elevation": 4314.0, "area": "2.50 acres", "county": "Skamania", "lat": 46.00498, "lon": -121.827913, "starting": false, "overabundant": false}, {"name": "Helen", "url": "https://wdfw.wa.gov/fishing/locations/high-lakes/helen", "elevation": 4616.0, "area": "3.90 acres", "county": "Pierce", "lat": 46.832896, "lon": -121.946887, "starting": false, "overabundant": false}, {"name": "Hell", "url": "https://wdfw.wa.gov/fishing/locations/high-lakes/hell", "elevation": 5429.0, "area": "2.30 acres", "county": "Yakima", "lat": 46.622639, "lon": -121.368434, "starting": false, "overabundant": false}, {"name": "Hemple", "url": "https://wdfw.wa.gov/fishing/locations/high-lakes/hemple", "elevation": 3099.0, "area": "5.80 acres", "county": "Snohomish", "lat": 48.057443, "lon": -121.754208, "starting": false, "overabundant": false}, {"name": "Hester - Little", "url": "https://wdfw.wa.gov/fishing/locations/high-lakes/hester-little", "elevation": 4236.0, "area": "6.30 acres", "county": "King", "lat": 47.507957, "lon": -121.403086, "starting": false, "overabundant": false}, {"name": "Hester Lake", "url": "https://wdfw.wa.gov/fishing/locations/high-lakes/hester-lake", "elevation": 3890.0, "area": "64.80 acres", "county": "King", "lat": 47.508764, "lon": -121.393627, "starting": true, "overabundant": false}, {"name": "Hester Pothole", "url": "https://wdfw.wa.gov/fishing/locations/high-lakes/hester-pothole", "elevation": 4355.0, "area": "1.10 acres", "county": "King", "lat": 47.513928, "lon": -121.400081, "starting": false, "overabundant": false}, {"name": "Hi Yu", "url": "https://wdfw.wa.gov/fishing/locations/high-lakes/hi-yu", "elevation": 3831.0, "area": "3.20 acres", "county": "Whatcom", "lat": 48.662256, "lon": -121.465687, "starting": false, "overabundant": false}, {"name": "Hi-Low", "url": "https://wdfw.wa.gov/fishing/locations/high-lakes/hi-low", "elevation": 3943.0, "area": "4.90 acres", "county": "King", "lat": 47.540519, "lon": -121.443902, "starting": false, "overabundant": false}, {"name": "Hibox", "url": "https://wdfw.wa.gov/fishing/locations/high-lakes/hibox", "elevation": 4628.0, "area": "2.40 acres", "county": "Kittitas", "lat": 47.420676, "lon": -121.275975, "starting": false, "overabundant": false}, {"name": "Hidden Lake (Pierce County)", "url": "https://wdfw.wa.gov/fishing/locations/high-lakes/hidden", "elevation": 4181.0, "area": "3.00 acres", "county": "Pierce", "lat": 47.009275, "lon": -121.443772, "starting": false, "overabundant": false}, {"name": "Hidden Lake (Skagit County)", "url": "https://wdfw.wa.gov/fishing/locations/high-lakes/hidden-skagit", "elevation": 5737.0, "area": "61.30 acres", "county": "Skagit", "lat": 48.495611, "lon": -121.188723, "starting": false, "overabundant": false}, {"name": "Hidden Lake Tarn", "url": "https://wdfw.wa.gov/fishing/locations/high-lakes/hidden-lake-tarn", "elevation": 5947.0, "area": "4.50 acres", "county": "Skagit", "lat": 48.502572, "lon": -121.186748, "starting": false, "overabundant": false}, {"name": "Hidden Lakes 1 (Skamania County)", "url": "https://wdfw.wa.gov/fishing/locations/high-lakes/hidden-1", "elevation": 4068.0, "area": "9.20 acres", "county": "Skamania", "lat": 46.046489, "lon": -121.739268, "starting": false, "overabundant": false}, {"name": "Hidden Lakes 2 (Skamania County)", "url": "https://wdfw.wa.gov/fishing/locations/high-lakes/hidden-2", "elevation": 4066.0, "area": "3.80 acres", "county": "Skamania", "lat": 46.048301, "lon": -121.736619, "starting": false, "overabundant": false}, {"name": "Hidden Lakes 3 (Skamania County)", "url": "https://wdfw.wa.gov/fishing/locations/high-lakes/hidden-3", "elevation": 4079.0, "area": "2.30 acres", "county": "Skamania", "lat": 46.046998, "lon": -121.733229, "starting": false, "overabundant": false}, {"name": "Hill", "url": "https://wdfw.wa.gov/fishing/locations/high-lakes/hill", "elevation": 5115.0, "area": "4.50 acres", "county": "Yakima", "lat": 46.69817, "lon": -121.349144, "starting": false, "overabundant": false}, {"name": "Holoman", "url": "https://wdfw.wa.gov/fishing/locations/high-lakes/holoman", "elevation": 3664.0, "area": "6.40 acres", "county": "King", "lat": 47.769527, "lon": -121.622482, "starting": false, "overabundant": false}, {"name": "Honey", "url": "https://wdfw.wa.gov/fishing/locations/high-lakes/honey", "elevation": 3244.0, "area": "9.50 acres", "county": "King", "lat": 47.591061, "lon": -121.567675, "starting": false, "overabundant": false}, {"name": "Hope", "url": "https://wdfw.wa.gov/fishing/locations/high-lakes/hope", "elevation": 4390.0, "area": "1.40 acres", "county": "Chelan", "lat": 47.699054, "lon": -121.09013, "starting": true, "overabundant": false}, {"name": "Hopkins", "url": "https://wdfw.wa.gov/fishing/locations/high-lakes/hopkins", "elevation": 6186.0, "area": "5.50 acres", "county": "Okanogan", "lat": 48.924861, "lon": -120.767094, "starting": false, "overabundant": false}, {"name": "Horse", "url": "https://wdfw.wa.gov/fishing/locations/high-lakes/horse", "elevation": 4427.0, "area": "4.20 acres", "county": "Skagit", "lat": 48.322979, "lon": -121.213999, "starting": false, "overabundant": false}, {"name": "Horseshoe", "url": "https://wdfw.wa.gov/fishing/locations/high-lakes/horseshoe", "elevation": 6269.0, "area": "8.30 acres", "county": "Chelan", "lat": 47.493959, "lon": -120.908029, "starting": false, "overabundant": false}, {"name": "Horseshoe (King County)", "url": "https://wdfw.wa.gov/fishing/locations/high-lakes/horseshoe-king", "elevation": 4265.0, "area": "8.50 acres", "county": "King", "lat": 47.503778, "lon": -121.502338, "starting": false, "overabundant": false}, {"name": "Horseshoe (King County)", "url": "https://wdfw.wa.gov/fishing/locations/high-lakes/horseshoe-king-1", "elevation": 3906.0, "area": "22.80 acres", "county": "King", "lat": 47.53419, "lon": -121.423656, "starting": false, "overabundant": false}, {"name": "Horseshoe Lake (Skamania County)", "url": "https://wdfw.wa.gov/fishing/locations/high-lakes/horseshoe-skamania", "elevation": 4144.0, "area": "21.30 acres", "county": "Skamania", "lat": 46.308297, "lon": -121.570217, "starting": false, "overabundant": false}, {"name": "Howard", "url": "https://wdfw.wa.gov/fishing/locations/high-lakes/howard", "elevation": 4512.0, "area": "3.20 acres", "county": "Snohomish", "lat": 47.849786, "lon": -121.405337, "starting": false, "overabundant": false}, {"name": "Howard (Skagit County)", "url": "https://wdfw.wa.gov/fishing/locations/high-lakes/howard-skagit", "elevation": 3991.0, "area": "2.30 acres", "county": "Skagit", "lat": 48.640518, "lon": -121.946459, "starting": false, "overabundant": false}, {"name": "Howard Creek Firepond", "url": "https://wdfw.wa.gov/fishing/locations/high-lakes/howard-creek-firepond", "elevation": 2847.0, "area": "2.00 acres", "county": "Whatcom", "lat": 48.66256, "lon": -122.00269, "starting": false, "overabundant": false}, {"name": "Hummingbird", "url": "https://wdfw.wa.gov/fishing/locations/high-lakes/hummingbird", "elevation": 4993.0, "area": "2.80 acres", "county": "King", "lat": 47.647767, "lon": -121.232389, "starting": false, "overabundant": false}, {"name": "Hyas", "url": "https://wdfw.wa.gov/fishing/locations/high-lakes/hyas", "elevation": 4348.0, "area": "2.10 acres", "county": "Skagit", "lat": 48.365042, "lon": -121.363503, "starting": false, "overabundant": false}, {"name": "Ice 1 (East)", "url": "https://wdfw.wa.gov/fishing/locations/high-lakes/ice-1-east", "elevation": 6826.0, "area": "20.10 acres", "county": "Chelan", "lat": 48.13359, "lon": -120.78348, "starting": false, "overabundant": false}, {"name": "Iceberg (King County)", "url": "https://wdfw.wa.gov/fishing/locations/high-lakes/iceberg-king", "elevation": 4865.0, "area": "17.20 acres", "county": "King", "lat": 47.500735, "lon": -121.305991, "starting": false, "overabundant": false}, {"name": "Icebox", "url": "https://wdfw.wa.gov/fishing/locations/high-lakes/icebox", "elevation": 5389.0, "area": "0.60 acres", "county": "Kittitas", "lat": 47.472974, "lon": -121.300791, "starting": false, "overabundant": false}, {"name": "Ida", "url": "https://wdfw.wa.gov/fishing/locations/high-lakes/ida", "elevation": 6765.0, "area": "15.00 acres", "county": "Chelan", "lat": 47.635527, "lon": -120.859427, "starting": false, "overabundant": false}, {"name": "Ilswoot", "url": "https://wdfw.wa.gov/fishing/locations/high-lakes/ilswoot", "elevation": 4595.0, "area": "43.50 acres", "county": "King", "lat": 47.584657, "lon": -121.251749, "starting": false, "overabundant": false}, {"name": "Independence", "url": "https://wdfw.wa.gov/fishing/locations/high-lakes/independence", "elevation": 3698.0, "area": "6.10 acres", "county": "Snohomish", "lat": 48.122724, "lon": -121.533032, "starting": false, "overabundant": false}, {"name": "Indian Pond 1", "url": "https://wdfw.wa.gov/fishing/locations/high-lakes/indian-pond-1", "elevation": 2737.0, "area": "0.30 acres", "county": "Chelan", "lat": 47.928978, "lon": -120.933061, "starting": false, "overabundant": false}, {"name": "Indigo", "url": "https://wdfw.wa.gov/fishing/locations/high-lakes/indigo", "elevation": 4786.0, "area": "20.20 acres", "county": "Snohomish", "lat": 48.220536, "lon": -121.313431, "starting": false, "overabundant": false}, {"name": "Ingalls", "url": "https://wdfw.wa.gov/fishing/locations/high-lakes/ingalls", "elevation": 6467.0, "area": "15.80 acres", "county": "Chelan", "lat": 47.470437, "lon": -120.938581, "starting": false, "overabundant": false}, {"name": "Intermittent Lake", "url": "https://wdfw.wa.gov/fishing/locations/high-lakes/intermittent-lake", "elevation": 3857.0, "area": "2.40 acres", "county": "Skamania", "lat": 45.94091, "lon": -121.788183, "starting": false, "overabundant": false}, {"name": "Isabel", "url": "https://wdfw.wa.gov/fishing/locations/high-lakes/isabel", "elevation": 2851.0, "area": "167.60 acres", "county": "Snohomish", "lat": 47.870826, "lon": -121.590008, "starting": false, "overabundant": false}, {"name": "Isabella", "url": "https://wdfw.wa.gov/fishing/locations/high-lakes/isabella", "elevation": 3514.0, "area": "12.30 acres", "county": "King", "lat": 47.606077, "lon": -121.608084, "starting": false, "overabundant": false}, {"name": "Island", "url": "https://wdfw.wa.gov/fishing/locations/high-lakes/island", "elevation": 4254.0, "area": "17.00 acres", "county": "King", "lat": 47.420794, "lon": -121.538069, "starting": false, "overabundant": false}, {"name": "Island (Skamania County)", "url": "https://wdfw.wa.gov/fishing/locations/high-lakes/island-skamania2", "elevation": 5393.0, "area": "4.40 acres", "county": "Skamania", "lat": 46.199081, "lon": -121.587759, "starting": false, "overabundant": false}, {"name": "Island - Little", "url": "https://wdfw.wa.gov/fishing/locations/high-lakes/island-little", "elevation": 3503.0, "area": "2.50 acres", "county": "Snohomish", "lat": 48.043895, "lon": -121.752761, "starting": false, "overabundant": false}, {"name": "Island Lake (Skamania County)", "url": "https://wdfw.wa.gov/fishing/locations/high-lakes/island-skamania1", "elevation": 4824.0, "area": "9.50 acres", "county": "Skamania", "lat": 46.352533, "lon": -122.157965, "starting": true, "overabundant": false}, {"name": "Itswoot", "url": "https://wdfw.wa.gov/fishing/locations/high-lakes/itswoot", "elevation": 5020.0, "area": "36.90 acres", "county": "Skagit", "lat": 48.300711, "lon": -121.087869, "starting": false, "overabundant": false}, {"name": "Jackpot Lake", "url": "https://wdfw.wa.gov/fishing/locations/high-lakes/jackpot", "elevation": 4555.0, "area": "2.60 acres", "county": "Lewis", "lat": 46.466596, "lon": -121.698384, "starting": false, "overabundant": false}, {"name": "Jade (King County)", "url": "https://wdfw.wa.gov/fishing/locations/high-lakes/jade-king", "elevation": 5446.0, "area": "23.00 acres", "county": "King", "lat": 47.59745, "lon": -121.180501, "starting": false, "overabundant": false}, {"name": "Jakes", "url": "https://wdfw.wa.gov/fishing/locations/high-lakes/jakes", "elevation": 5070.0, "area": "7.60 acres", "county": "King", "lat": 47.750716, "lon": -121.232904, "starting": false, "overabundant": false}, {"name": "Jane 1", "url": "https://wdfw.wa.gov/fishing/locations/high-lakes/jane-1", "elevation": 4800.0, "area": "0.50 acres", "county": "Pierce", "lat": 47.003487, "lon": -121.645501, "starting": false, "overabundant": false}, {"name": "Jane 3", "url": "https://wdfw.wa.gov/fishing/locations/high-lakes/jane-3", "elevation": 5182.0, "area": "0.80 acres", "county": "Pierce", "lat": 47.001673, "lon": -121.651367, "starting": false, "overabundant": false}, {"name": "Jane 4", "url": "https://wdfw.wa.gov/fishing/locations/high-lakes/jane-4", "elevation": 4946.0, "area": "0.30 acres", "county": "Pierce", "lat": 47.002485, "lon": -121.646937, "starting": false, "overabundant": false}, {"name": "Janet", "url": "https://wdfw.wa.gov/fishing/locations/high-lakes/janet", "elevation": 5036.0, "area": "4.60 acres", "county": "Yakima", "lat": 47.008576, "lon": -121.382911, "starting": false, "overabundant": false}, {"name": "Janus Lake", "url": "https://wdfw.wa.gov/fishing/locations/high-lakes/janus-lake", "elevation": 4150.0, "area": "28.40 acres", "county": "Snohomish", "lat": 47.827248, "lon": -121.094914, "starting": true, "overabundant": false}, {"name": "Jeanie", "url": "https://wdfw.wa.gov/fishing/locations/high-lakes/jeanie", "elevation": 4711.0, "area": "2.10 acres", "county": "King", "lat": 47.664011, "lon": -121.196464, "starting": false, "overabundant": false}, {"name": "Jess Lake", "url": "https://wdfw.wa.gov/fishing/locations/high-lakes/jess", "elevation": 5118.0, "area": "4.10 acres", "county": "Lewis", "lat": 46.705751, "lon": -121.389557, "starting": false, "overabundant": false}, {"name": "Jewel - TB 1", "url": "https://wdfw.wa.gov/fishing/locations/high-lakes/jewel-tb-1", "elevation": 4472.0, "area": "1.20 acres", "county": "King", "lat": 47.656392, "lon": -121.239589, "starting": false, "overabundant": false}, {"name": "Jewel - TB 2", "url": "https://wdfw.wa.gov/fishing/locations/high-lakes/jewel-tb-2", "elevation": 4591.0, "area": "2.40 acres", "county": "King", "lat": 47.653657, "lon": -121.237374, "starting": false, "overabundant": false}, {"name": "Jewel Pothole 3", "url": "https://wdfw.wa.gov/fishing/locations/high-lakes/jewel-pothole-3", "elevation": 4630.0, "area": "0.20 acres", "county": "King", "lat": 47.653768, "lon": -121.23392, "starting": false, "overabundant": false}, {"name": "Joe - Little", "url": "https://wdfw.wa.gov/fishing/locations/high-lakes/joe-little", "elevation": 4709.0, "area": "4.40 acres", "county": "Kittitas", "lat": 47.387113, "lon": -121.155973, "starting": false, "overabundant": false}, {"name": "Joe Lake", "url": "https://wdfw.wa.gov/fishing/locations/high-lakes/joe-lake", "elevation": 4628.0, "area": "28.70 acres", "county": "Kittitas", "lat": 47.467748, "lon": -121.337478, "starting": true, "overabundant": false}, {"name": "Joker", "url": "https://wdfw.wa.gov/fishing/locations/high-lakes/joker", "elevation": 6190.0, "area": "3.00 acres", "county": "Whatcom", "lat": 48.954821, "lon": -120.889793, "starting": false, "overabundant": false}, {"name": "Jordan - Lower", "url": "https://wdfw.wa.gov/fishing/locations/high-lakes/jordan-lower", "elevation": 4037.0, "area": "52.20 acres", "county": "Skagit", "lat": 48.45094, "lon": -121.359016, "starting": false, "overabundant": false}, {"name": "Jordan - Upper", "url": "https://wdfw.wa.gov/fishing/locations/high-lakes/jordan-upper", "elevation": 4515.0, "area": "66.10 acres", "county": "Skagit", "lat": 48.452231, "lon": -121.336785, "starting": false, "overabundant": false}, {"name": "Josephine", "url": "https://wdfw.wa.gov/fishing/locations/high-lakes/josephine", "elevation": 4686.0, "area": "22.50 acres", "county": "Chelan", "lat": 47.719148, "lon": -121.057149, "starting": false, "overabundant": false}, {"name": "Josephine - Upper", "url": "https://wdfw.wa.gov/fishing/locations/high-lakes/josephine-upper", "elevation": 3052.0, "area": "2.60 acres", "county": "Skagit", "lat": 48.588064, "lon": -121.944944, "starting": false, "overabundant": false}, {"name": "Jove", "url": "https://wdfw.wa.gov/fishing/locations/high-lakes/jove", "elevation": 5157.0, "area": "0.70 acres", "county": "Chelan", "lat": 47.82463, "lon": -121.067567, "starting": false, "overabundant": false}, {"name": "June", "url": "https://wdfw.wa.gov/fishing/locations/high-lakes/june", "elevation": 5102.0, "area": "2.80 acres", "county": "King", "lat": 47.629951, "lon": -121.23091, "starting": false, "overabundant": false}, {"name": "Jungfrau", "url": "https://wdfw.wa.gov/fishing/locations/high-lakes/jungfrau", "elevation": 5352.0, "area": "5.00 acres", "county": "Chelan", "lat": 47.609316, "lon": -121.111376, "starting": false, "overabundant": false}, {"name": "Jupiter 3", "url": "https://wdfw.wa.gov/fishing/locations/high-lakes/jupiter-3", "elevation": 3819.0, "area": "7.30 acres", "county": "Jefferson", "lat": 47.714733, "lon": -123.050242, "starting": false, "overabundant": false}, {"name": "Jupiter 4 (Highest)", "url": "https://wdfw.wa.gov/fishing/locations/high-lakes/jupiter-4-highest", "elevation": 3948.0, "area": "3.10 acres", "county": "Jefferson", "lat": 47.710454, "lon": -123.047882, "starting": false, "overabundant": false}, {"name": "Jupiter 6", "url": "https://wdfw.wa.gov/fishing/locations/high-lakes/jupiter-6", "elevation": 4344.0, "area": "2.00 acres", "county": "Jefferson", "lat": 47.711007, "lon": -123.070513, "starting": false, "overabundant": false}, {"name": "Kawkawak", "url": "https://wdfw.wa.gov/fishing/locations/high-lakes/kawkawak", "elevation": 5354.0, "area": "7.30 acres", "county": "Skagit", "lat": 48.33686, "lon": -121.310197, "starting": false, "overabundant": false}, {"name": "Keechelus Lake", "url": "https://wdfw.wa.gov/fishing/locations/high-lakes/keechelus-lake", "elevation": 2521.0, "area": "2408.50 acres", "county": "Kittitas", "lat": 47.326711, "lon": -121.351609, "starting": false, "overabundant": false}, {"name": "Kelcema", "url": "https://wdfw.wa.gov/fishing/locations/high-lakes/kelcema", "elevation": 3190.0, "area": "20.20 acres", "county": "Snohomish", "lat": 48.113975, "lon": -121.602504, "starting": false, "overabundant": false}, {"name": "Kendall Peak - Lower", "url": "https://wdfw.wa.gov/fishing/locations/high-lakes/kendall-peak-lower", "elevation": 4382.0, "area": "1.90 acres", "county": "Kittitas", "lat": 47.429905, "lon": -121.381975, "starting": false, "overabundant": false}, {"name": "Kendall Peak - Middle", "url": "https://wdfw.wa.gov/fishing/locations/high-lakes/kendall-peak-middle", "elevation": 4434.0, "area": "3.70 acres", "county": "Kittitas", "lat": 47.432184, "lon": -121.380256, "starting": false, "overabundant": false}, {"name": "Kendall Peak - Upper", "url": "https://wdfw.wa.gov/fishing/locations/high-lakes/kendall-peak-upper", "elevation": 4740.0, "area": "6.00 acres", "county": "Kittitas", "lat": 47.433119, "lon": -121.376074, "starting": false, "overabundant": false}, {"name": "King", "url": "https://wdfw.wa.gov/fishing/locations/high-lakes/king", "elevation": 5948.0, "area": "2.30 acres", "county": "Chelan", "lat": 48.094608, "lon": -120.897024, "starting": false, "overabundant": false}, {"name": "Kitling", "url": "https://wdfw.wa.gov/fishing/locations/high-lakes/kitling", "elevation": 5794.0, "area": "1.50 acres", "county": "Skagit", "lat": 48.5977, "lon": -120.858997, "starting": false, "overabundant": false}, {"name": "Knuppenburg Lake", "url": "https://wdfw.wa.gov/fishing/locations/high-lakes/knuppenburg-lake", "elevation": 4105.0, "area": "2.30 acres", "county": "Lewis", "lat": 46.628678, "lon": -121.41798, "starting": true, "overabundant": false}, {"name": "Kulla - Little", "url": "https://wdfw.wa.gov/fishing/locations/high-lakes/kulla-little", "elevation": 3862.0, "area": "2.40 acres", "county": "King", "lat": 47.428625, "lon": -121.548472, "starting": false, "overabundant": false}, {"name": "Kulla Kulla", "url": "https://wdfw.wa.gov/fishing/locations/high-lakes/kulla-kulla", "elevation": 3769.0, "area": "58.60 acres", "county": "King", "lat": 47.432159, "lon": -121.549223, "starting": false, "overabundant": false}, {"name": "Kwaddis Lake (Skamania County)", "url": "https://wdfw.wa.gov/fishing/locations/high-lakes/kwaddis", "elevation": 4309.0, "area": "3.10 acres", "county": "Skamania", "lat": 46.000734, "lon": -121.830996, "starting": false, "overabundant": false}, {"name": "Kwahnesum", "url": "https://wdfw.wa.gov/fishing/locations/high-lakes/kwahnesum", "elevation": 5106.0, "area": "16.40 acres", "county": "Whatcom", "lat": 48.975987, "lon": -121.481593, "starting": false, "overabundant": false}, {"name": "La Bohn 3", "url": "https://wdfw.wa.gov/fishing/locations/high-lakes/la-bohn-3", "elevation": 5839.0, "area": "17.40 acres", "county": "King", "lat": 47.566458, "lon": -121.238018, "starting": false, "overabundant": false}, {"name": "La Rush", "url": "https://wdfw.wa.gov/fishing/locations/high-lakes/la-rush", "elevation": 3168.0, "area": "3.30 acres", "county": "Skagit", "lat": 48.503098, "lon": -121.277758, "starting": false, "overabundant": false}, {"name": "Lake Creek Pond", "url": "https://wdfw.wa.gov/fishing/locations/high-lakes/lake-creek-pond", "elevation": 4344.0, "area": "0.80 acres", "county": "Chelan", "lat": 47.86906, "lon": -121.136842, "starting": false, "overabundant": false}, {"name": "Lake Sahalee Tyee (Skamania County)", "url": "https://wdfw.wa.gov/fishing/locations/high-lakes/sahalee-tyee", "elevation": 4708.0, "area": "5.50 acres", "county": "Skamania", "lat": 45.986973, "lon": -121.797392, "starting": false, "overabundant": false}, {"name": "Lake Toke Tie (Skamania County)", "url": "https://wdfw.wa.gov/fishing/locations/high-lakes/toke-tie", "elevation": 4694.0, "area": "2.90 acres", "county": "Skamania", "lat": 45.991599, "lon": -121.789927, "starting": false, "overabundant": false}, {"name": "Lake Wapiki (Skamania County)", "url": "https://wdfw.wa.gov/fishing/locations/high-lakes/wapiki", "elevation": 5241.0, "area": "7.30 acres", "county": "Skamania", "lat": 46.019824, "lon": -121.749865, "starting": false, "overabundant": false}, {"name": "Lakeview Peak", "url": "https://wdfw.wa.gov/fishing/locations/high-lakes/lakeview-peak", "elevation": 2908.0, "area": "2.60 acres", "county": "Cowlitz", "lat": 46.064919, "lon": -122.396212, "starting": false, "overabundant": false}, {"name": "Lamont", "url": "https://wdfw.wa.gov/fishing/locations/high-lakes/lamont", "elevation": 6632.0, "area": "7.00 acres", "county": "Okanogan", "lat": 48.497557, "lon": -120.524885, "starting": false, "overabundant": false}, {"name": "Larch - Upper", "url": "https://wdfw.wa.gov/fishing/locations/high-lakes/larch-upper", "elevation": 5736.0, "area": "4.30 acres", "county": "Chelan", "lat": 48.063584, "lon": -120.738846, "starting": false, "overabundant": false}, {"name": "Laura", "url": "https://wdfw.wa.gov/fishing/locations/high-lakes/laura", "elevation": 4370.0, "area": "3.20 acres", "county": "Kittitas", "lat": 47.397542, "lon": -121.343837, "starting": false, "overabundant": false}, {"name": "Le Fay", "url": "https://wdfw.wa.gov/fishing/locations/high-lakes/le-fay", "elevation": 4072.0, "area": "5.90 acres", "county": "King", "lat": 47.544619, "lon": -121.406028, "starting": false, "overabundant": false}, {"name": "Ledge", "url": "https://wdfw.wa.gov/fishing/locations/high-lakes/ledge", "elevation": 4545.0, "area": "2.40 acres", "county": "Snohomish", "lat": 48.223661, "lon": -121.437901, "starting": false, "overabundant": false}, {"name": "Leech Lake", "url": "https://wdfw.wa.gov/fishing/locations/high-lakes/leech-lake-yakima", "elevation": 4416.0, "area": "41.70 acres", "county": "Yakima", "lat": 46.64269, "lon": -121.3873, "starting": false, "overabundant": false}, {"name": "Lemei Lake (Skamania County)", "url": "https://wdfw.wa.gov/fishing/locations/high-lakes/lemei", "elevation": 4865.0, "area": "6.10 acres", "county": "Skamania", "lat": 46.017913, "lon": -121.776813, "starting": false, "overabundant": false}, {"name": "Lennox", "url": "https://wdfw.wa.gov/fishing/locations/high-lakes/lennox", "elevation": 4703.0, "area": "1.70 acres", "county": "King", "lat": 47.633162, "lon": -121.478652, "starting": false, "overabundant": false}, {"name": "Lennox Pothole", "url": "https://wdfw.wa.gov/fishing/locations/high-lakes/lennox-pothole", "elevation": 4681.0, "area": "0.40 acres", "county": "King", "lat": 47.624237, "lon": -121.473072, "starting": false, "overabundant": false}, {"name": "Lepul", "url": "https://wdfw.wa.gov/fishing/locations/high-lakes/lepul", "elevation": 5917.0, "area": "1.80 acres", "county": "King", "lat": 47.583654, "lon": -121.23905, "starting": false, "overabundant": false}, {"name": "Lewis", "url": "https://wdfw.wa.gov/fishing/locations/high-lakes/lewis", "elevation": 5707.0, "area": "10.60 acres", "county": "Skagit", "lat": 48.513576, "lon": -120.784168, "starting": false, "overabundant": false}, {"name": "Lightning", "url": "https://wdfw.wa.gov/fishing/locations/high-lakes/lightning", "elevation": 3398.0, "area": "1.60 acres", "county": "Yakima", "lat": 46.676526, "lon": -121.143269, "starting": false, "overabundant": false}, {"name": "Lila", "url": "https://wdfw.wa.gov/fishing/locations/high-lakes/lila", "elevation": 5196.0, "area": "2.80 acres", "county": "Kittitas", "lat": 47.431699, "lon": -121.324946, "starting": false, "overabundant": false}, {"name": "Lillian", "url": "https://wdfw.wa.gov/fishing/locations/high-lakes/lillian", "elevation": 4784.0, "area": "12.50 acres", "county": "Kittitas", "lat": 47.400701, "lon": -121.340309, "starting": false, "overabundant": false}, {"name": "Lilly Lake (Chelan County)", "url": "https://wdfw.wa.gov/fishing/locations/high-lakes/lilly-lake", "elevation": 3125.0, "area": "13.70 acres", "county": "Chelan", "lat": 47.294792, "lon": -120.308571, "starting": false, "overabundant": false}, {"name": "Lily Lake (Lewis County)", "url": "https://wdfw.wa.gov/fishing/locations/high-lakes/lily-lewis", "elevation": 3657.0, "area": "18.30 acres", "county": "Lewis", "lat": 46.640491, "lon": -121.470672, "starting": false, "overabundant": false}, {"name": "Lily Lake (Pierce County)", "url": "https://wdfw.wa.gov/fishing/locations/high-lakes/lily-pierce", "elevation": 4086.0, "area": "9.10 acres", "county": "Pierce", "lat": 47.041996, "lon": -121.815256, "starting": false, "overabundant": false}, {"name": "Lily Lake (Yakima County)", "url": "https://wdfw.wa.gov/fishing/locations/high-lakes/lily-yakima", "elevation": 3867.0, "area": "5.30 acres", "county": "Yakima", "lat": 46.837641, "lon": -121.354119, "starting": false, "overabundant": false}, {"name": "Lime", "url": "https://wdfw.wa.gov/fishing/locations/high-lakes/lime", "elevation": 5540.0, "area": "9.90 acres", "county": "Snohomish", "lat": 48.184399, "lon": -121.184484, "starting": false, "overabundant": false}, {"name": "Lime Twist", "url": "https://wdfw.wa.gov/fishing/locations/high-lakes/lime-twist", "elevation": 5109.0, "area": "4.70 acres", "county": "Snohomish", "lat": 48.22528, "lon": -121.244904, "starting": false, "overabundant": false}, {"name": "Lincoln Pond", "url": "https://wdfw.wa.gov/fishing/locations/high-lakes/lincoln-pond", "elevation": 4441.0, "area": "3.20 acres", "county": "Mason", "lat": 47.546532, "lon": -123.310829, "starting": false, "overabundant": false}, {"name": "Little", "url": "https://wdfw.wa.gov/fishing/locations/high-lakes/little", "elevation": 5637.0, "area": "0.80 acres", "county": "Yakima", "lat": 46.545293, "lon": -121.138258, "starting": false, "overabundant": false}, {"name": "Loch Katrine Pot - Lower", "url": "https://wdfw.wa.gov/fishing/locations/high-lakes/loch-katrine-pot-lower", "elevation": 4272.0, "area": "0.70 acres", "county": "King", "lat": 47.624726, "lon": -121.60496, "starting": false, "overabundant": false}, {"name": "Loch Katrine Pot - Upper", "url": "https://wdfw.wa.gov/fishing/locations/high-lakes/loch-katrine-pot-upper", "elevation": 4750.0, "area": "0.60 acres", "county": "King", "lat": 47.623404, "lon": -121.610631, "starting": false, "overabundant": false}, {"name": "Lodge Lake", "url": "https://wdfw.wa.gov/fishing/locations/high-lakes/lodge-lake", "elevation": 3130.0, "area": "9.00 acres", "county": "King", "lat": 47.409483, "lon": -121.430161, "starting": true, "overabundant": false}, {"name": "Lodge Pot", "url": "https://wdfw.wa.gov/fishing/locations/high-lakes/lodge-pot", "elevation": 3153.0, "area": "0.70 acres", "county": "King", "lat": 47.406958, "lon": -121.432433, "starting": false, "overabundant": false}, {"name": "Lone Tree Lake", "url": "https://wdfw.wa.gov/fishing/locations/high-lakes/lone-tree", "elevation": 3862.0, "area": "0.40 acres", "county": "Lewis", "lat": 46.482505, "lon": -121.838567, "starting": false, "overabundant": false}, {"name": "Long Gone", "url": "https://wdfw.wa.gov/fishing/locations/high-lakes/long-gone", "elevation": 4946.0, "area": "9.80 acres", "county": "Skagit", "lat": 48.382222, "lon": -121.129601, "starting": false, "overabundant": false}, {"name": "Long Gone Pot", "url": "https://wdfw.wa.gov/fishing/locations/high-lakes/long-gone-pot", "elevation": 5547.0, "area": "1.30 acres", "county": "Skagit", "lat": 48.383075, "lon": -121.13998, "starting": false, "overabundant": false}, {"name": "Long John", "url": "https://wdfw.wa.gov/fishing/locations/high-lakes/long-john", "elevation": 5154.0, "area": "2.50 acres", "county": "Yakima", "lat": 46.697813, "lon": -121.368317, "starting": false, "overabundant": false}, {"name": "Long Lake (Yakima County)", "url": "https://wdfw.wa.gov/fishing/locations/high-lakes/long-yakima", "elevation": 4319.0, "area": "1.70 acres", "county": "Yakima", "lat": 46.622328, "lon": -121.064138, "starting": false, "overabundant": false}, {"name": "Lorraine", "url": "https://wdfw.wa.gov/fishing/locations/high-lakes/lorraine", "elevation": 5069.0, "area": "2.60 acres", "county": "Chelan", "lat": 47.663069, "lon": -121.084264, "starting": false, "overabundant": false}, {"name": "Lost (Chelan County)", "url": "https://wdfw.wa.gov/fishing/locations/high-lakes/lost-chelan", "elevation": 5630.0, "area": "1.00 acres", "county": "Chelan", "lat": 47.884394, "lon": -120.62733, "starting": false, "overabundant": false}, {"name": "Lost (Snohomish County)", "url": "https://wdfw.wa.gov/fishing/locations/high-lakes/lost-snohomish", "elevation": 2949.0, "area": "1.50 acres", "county": "Snohomish", "lat": 47.806252, "lon": -121.624633, "starting": false, "overabundant": false}, {"name": "Lost Hat Lake", "url": "https://wdfw.wa.gov/fishing/locations/high-lakes/lost-hat", "elevation": 5585.0, "area": "1.80 acres", "county": "Lewis", "lat": 46.618455, "lon": -121.508744, "starting": false, "overabundant": false}, {"name": "Lost Lake (Chelan County)", "url": "https://wdfw.wa.gov/fishing/locations/high-lakes/lost-lake-chelan", "elevation": 4934.0, "area": "25.90 acres", "county": "Chelan", "lat": 47.814528, "lon": -120.921433, "starting": true, "overabundant": false}, {"name": "Lost Lake (Lewis County)", "url": "https://wdfw.wa.gov/fishing/locations/high-lakes/lost-lewis", "elevation": 5169.0, "area": "17.00 acres", "county": "Lewis", "lat": 46.601593, "lon": -121.511036, "starting": false, "overabundant": false}, {"name": "Lost Lake (Whatcom County)", "url": "https://wdfw.wa.gov/fishing/locations/high-lakes/lost-whatcom", "elevation": 2810.0, "area": "4.40 acres", "county": "Whatcom", "lat": 48.919297, "lon": -122.208035, "starting": false, "overabundant": false}, {"name": "Louise", "url": "https://wdfw.wa.gov/fishing/locations/high-lakes/louise", "elevation": 4827.0, "area": "5.30 acres", "county": "Skagit", "lat": 48.402383, "lon": -121.464552, "starting": false, "overabundant": false}, {"name": "Lower Ashland Lake", "url": "https://wdfw.wa.gov/fishing/locations/high-lakes/lower-ashland-lake", "elevation": 2674.0, "area": "10.70 acres", "county": "Snohomish", "lat": 48.027604, "lon": -121.726507, "starting": true, "overabundant": false}, {"name": "Lower Loch Katrine", "url": "https://wdfw.wa.gov/fishing/locations/high-lakes/lower-loch-katrine", "elevation": 2904.0, "area": "49.70 acres", "county": "King", "lat": 47.636739, "lon": -121.606018, "starting": true, "overabundant": false}, {"name": "Lower Tuscohatchie Lake", "url": "https://wdfw.wa.gov/fishing/locations/high-lakes/lower-tuscohatchie-lake", "elevation": 3424.0, "area": "30.60 acres", "county": "King", "lat": 47.438792, "lon": -121.496534, "starting": true, "overabundant": false}, {"name": "Lunker", "url": "https://wdfw.wa.gov/fishing/locations/high-lakes/lunker", "elevation": 4040.0, "area": "3.10 acres", "county": "King", "lat": 47.543076, "lon": -121.437458, "starting": false, "overabundant": false}, {"name": "Lynne", "url": "https://wdfw.wa.gov/fishing/locations/high-lakes/lynne", "elevation": 4626.0, "area": "1.40 acres", "county": "Yakima", "lat": 46.728217, "lon": -121.017663, "starting": false, "overabundant": false}, {"name": "Mac Peak Pot - Upper", "url": "https://wdfw.wa.gov/fishing/locations/high-lakes/mac-peak-pot-upper", "elevation": 6075.0, "area": "1.10 acres", "county": "King", "lat": 47.625738, "lon": -121.131583, "starting": false, "overabundant": false}, {"name": "Mal", "url": "https://wdfw.wa.gov/fishing/locations/high-lakes/mal", "elevation": 4074.0, "area": "0.90 acres", "county": "Yakima", "lat": 46.771227, "lon": -121.110889, "starting": false, "overabundant": false}, {"name": "Malachite", "url": "https://wdfw.wa.gov/fishing/locations/high-lakes/malachite", "elevation": 4093.0, "area": "72.30 acres", "county": "King", "lat": 47.60887, "lon": -121.34127, "starting": false, "overabundant": false}, {"name": "Maloney 1", "url": "https://wdfw.wa.gov/fishing/locations/high-lakes/maloney-1", "elevation": 3950.0, "area": "0.50 acres", "county": "King", "lat": 47.672397, "lon": -121.335934, "starting": false, "overabundant": false}, {"name": "Maloney 2", "url": "https://wdfw.wa.gov/fishing/locations/high-lakes/maloney-2", "elevation": 4227.0, "area": "1.40 acres", "county": "King", "lat": 47.670334, "lon": -121.338582, "starting": false, "overabundant": false}, {"name": "Maloney 3", "url": "https://wdfw.wa.gov/fishing/locations/high-lakes/maloney-3", "elevation": 4473.0, "area": "1.00 acres", "county": "King", "lat": 47.666597, "lon": -121.342139, "starting": false, "overabundant": false}, {"name": "Maloney Meadow", "url": "https://wdfw.wa.gov/fishing/locations/high-lakes/maloney-meadow", "elevation": 4265.0, "area": "2.70 acres", "county": "King", "lat": 47.666687, "lon": -121.335042, "starting": false, "overabundant": false}, {"name": "Manastash Lake", "url": "https://wdfw.wa.gov/fishing/locations/high-lakes/manastash-lake", "elevation": 5067.0, "area": "28.30 acres", "county": "Kittitas", "lat": 46.996981, "lon": -120.944448, "starting": true, "overabundant": false}, {"name": "Margaret", "url": "https://wdfw.wa.gov/fishing/locations/high-lakes/margaret", "elevation": 4789.0, "area": "4.10 acres", "county": "Kittitas", "lat": 47.381085, "lon": -121.335476, "starting": false, "overabundant": false}, {"name": "Margaret (Snohomish County)", "url": "https://wdfw.wa.gov/fishing/locations/high-lakes/margaret-snohomish", "elevation": 4832.0, "area": "1.90 acres", "county": "Snohomish", "lat": 47.837117, "lon": -121.133253, "starting": false, "overabundant": false}, {"name": "Marion", "url": "https://wdfw.wa.gov/fishing/locations/high-lakes/marion", "elevation": 5520.0, "area": "1.40 acres", "county": "Chelan", "lat": 47.293731, "lon": -120.419601, "starting": false, "overabundant": false}, {"name": "Marmot Lake", "url": "https://wdfw.wa.gov/fishing/locations/high-lakes/marmot-lake", "elevation": 4935.0, "area": "128.00 acres", "county": "King", "lat": 47.612094, "lon": -121.188206, "starting": true, "overabundant": false}, {"name": "Marten Lake", "url": "https://wdfw.wa.gov/fishing/locations/high-lakes/marten-lake", "elevation": 2963.0, "area": "37.70 acres", "county": "King", "lat": 47.59268, "lon": -121.51467, "starting": true, "overabundant": false}, {"name": "Mason", "url": "https://wdfw.wa.gov/fishing/locations/high-lakes/mason", "elevation": 4184.0, "area": "32.10 acres", "county": "King", "lat": 47.423547, "lon": -121.551019, "starting": false, "overabundant": false}, {"name": "Mason - Little", "url": "https://wdfw.wa.gov/fishing/locations/high-lakes/mason-little", "elevation": 4254.0, "area": "4.90 acres", "county": "King", "lat": 47.428491, "lon": -121.557112, "starting": false, "overabundant": false}, {"name": "Mazama", "url": "https://wdfw.wa.gov/fishing/locations/high-lakes/mazama", "elevation": 4708.0, "area": "1.60 acres", "county": "Whatcom", "lat": 48.850366, "lon": -121.722751, "starting": true, "overabundant": false}, {"name": "McCaffrey", "url": "https://wdfw.wa.gov/fishing/locations/high-lakes/mccaffrey", "elevation": 3949.0, "area": "1.00 acres", "county": "King", "lat": 47.608794, "lon": -121.332594, "starting": false, "overabundant": false}, {"name": "McDaniel Lake", "url": "https://wdfw.wa.gov/fishing/locations/high-lakes/mcdaniel-lake", "elevation": 3438.0, "area": "4.20 acres", "county": "Yakima", "lat": 46.807241, "lon": -121.110328, "starting": false, "overabundant": false}, {"name": "McGinnis", "url": "https://wdfw.wa.gov/fishing/locations/high-lakes/mcginnis", "elevation": 4282.0, "area": "6.30 acres", "county": "Skagit", "lat": 48.637821, "lon": -121.93644, "starting": false, "overabundant": false}, {"name": "McGinnis Pot", "url": "https://wdfw.wa.gov/fishing/locations/high-lakes/mcginnis-pot", "elevation": 4622.0, "area": "1.10 acres", "county": "Skagit", "lat": 48.635471, "lon": -121.930729, "starting": false, "overabundant": false}, {"name": "Meadow", "url": "https://wdfw.wa.gov/fishing/locations/high-lakes/meadow", "elevation": 6388.0, "area": "2.30 acres", "county": "Okanogan", "lat": 48.857498, "lon": -120.119546, "starting": false, "overabundant": false}, {"name": "Melakwa - Lower", "url": "https://wdfw.wa.gov/fishing/locations/high-lakes/melakwa-lower", "elevation": 4504.0, "area": "7.10 acres", "county": "King", "lat": 47.449681, "lon": -121.468748, "starting": false, "overabundant": false}, {"name": "Melakwa - Upper", "url": "https://wdfw.wa.gov/fishing/locations/high-lakes/melakwa-upper", "elevation": 4506.0, "area": "1.70 acres", "county": "King", "lat": 47.452624, "lon": -121.470233, "starting": false, "overabundant": false}, {"name": "Melba", "url": "https://wdfw.wa.gov/fishing/locations/high-lakes/melba", "elevation": 5032.0, "area": "1.90 acres", "county": "Yakima", "lat": 46.69188, "lon": -121.342929, "starting": false, "overabundant": false}, {"name": "Merlin", "url": "https://wdfw.wa.gov/fishing/locations/high-lakes/merlin", "elevation": 4000.0, "area": "5.50 acres", "county": "King", "lat": 47.546479, "lon": -121.394836, "starting": false, "overabundant": false}, {"name": "Mica", "url": "https://wdfw.wa.gov/fishing/locations/high-lakes/mica", "elevation": 5447.0, "area": "15.50 acres", "county": "Snohomish", "lat": 48.16611, "lon": -121.159938, "starting": false, "overabundant": false}, {"name": "Mig", "url": "https://wdfw.wa.gov/fishing/locations/high-lakes/mig", "elevation": 4673.0, "area": "2.00 acres", "county": "King", "lat": 47.703824, "lon": -121.086221, "starting": false, "overabundant": false}, {"name": "Mildred - TB 2", "url": "https://wdfw.wa.gov/fishing/locations/high-lakes/mildred-tb-2", "elevation": 3758.0, "area": "8.50 acres", "county": "Mason", "lat": 47.560485, "lon": -123.29366, "starting": false, "overabundant": false}, {"name": "Mildred Lakes 1", "url": "https://wdfw.wa.gov/fishing/locations/high-lakes/mildred-lakes-1", "elevation": 3816.0, "area": "42.30 acres", "county": "Mason", "lat": 47.556831, "lon": -123.304563, "starting": false, "overabundant": false}, {"name": "Mildred Lakes 2", "url": "https://wdfw.wa.gov/fishing/locations/high-lakes/mildred-lakes-2", "elevation": 3822.0, "area": "11.40 acres", "county": "Mason", "lat": 47.56125, "lon": -123.299713, "starting": false, "overabundant": false}, {"name": "Milk", "url": "https://wdfw.wa.gov/fishing/locations/high-lakes/milk", "elevation": 5150.0, "area": "2.50 acres", "county": "Chelan", "lat": 47.641797, "lon": -121.11775, "starting": false, "overabundant": false}, {"name": "Milo Wood Pond", "url": "https://wdfw.wa.gov/fishing/locations/high-lakes/milo-wood-pond", "elevation": 3784.0, "area": "2.80 acres", "county": "Chelan", "lat": 47.284519, "lon": -120.340343, "starting": false, "overabundant": false}, {"name": "Mine Creek Pot - Upper", "url": "https://wdfw.wa.gov/fishing/locations/high-lakes/mine-creek-pot-upper", "elevation": 3864.0, "area": "0.90 acres", "county": "King", "lat": 47.40305, "lon": -121.635634, "starting": false, "overabundant": false}, {"name": "Minotaur", "url": "https://wdfw.wa.gov/fishing/locations/high-lakes/minotaur", "elevation": 5554.0, "area": "18.10 acres", "county": "Chelan", "lat": 47.846573, "lon": -121.03885, "starting": false, "overabundant": false}, {"name": "Mirror (Kittitas County)", "url": "https://wdfw.wa.gov/fishing/locations/high-lakes/mirror-kittitas", "elevation": 4199.0, "area": "28.30 acres", "county": "Kittitas", "lat": 47.34583, "lon": -121.439429, "starting": false, "overabundant": false}, {"name": "Misty", "url": "https://wdfw.wa.gov/fishing/locations/high-lakes/misty", "elevation": 4912.0, "area": "2.00 acres", "county": "Snohomish", "lat": 48.144014, "lon": -121.300685, "starting": false, "overabundant": false}, {"name": "MM", "url": "https://wdfw.wa.gov/fishing/locations/high-lakes/mm", "elevation": 5156.0, "area": "0.70 acres", "county": "Chelan", "lat": 47.560732, "lon": -121.057354, "starting": false, "overabundant": false}, {"name": "MM-11", "url": "https://wdfw.wa.gov/fishing/locations/high-lakes/mm-11", "elevation": 6480.0, "area": "3.30 acres", "county": "Chelan", "lat": 48.40425, "lon": -120.752947, "starting": false, "overabundant": false}, {"name": "Moira", "url": "https://wdfw.wa.gov/fishing/locations/high-lakes/moira", "elevation": 3912.0, "area": "1.50 acres", "county": "King", "lat": 47.560391, "lon": -121.365085, "starting": false, "overabundant": false}, {"name": "Moolock", "url": "https://wdfw.wa.gov/fishing/locations/high-lakes/moolock", "elevation": 3907.0, "area": "43.40 acres", "county": "King", "lat": 47.552551, "lon": -121.6487, "starting": false, "overabundant": false}, {"name": "Moon Lake (Skamania County)", "url": "https://wdfw.wa.gov/fishing/locations/high-lakes/moon", "elevation": 3460.0, "area": "1.50 acres", "county": "Skamania", "lat": 45.842715, "lon": -122.100042, "starting": false, "overabundant": false}, {"name": "Morris", "url": "https://wdfw.wa.gov/fishing/locations/high-lakes/morris", "elevation": 4542.0, "area": "0.70 acres", "county": "King", "lat": 47.598098, "lon": -121.158747, "starting": false, "overabundant": false}, {"name": "Moss Lake (Lewis County)", "url": "https://wdfw.wa.gov/fishing/locations/high-lakes/moss", "elevation": 3021.0, "area": "4.00 acres", "county": "Lewis", "lat": 46.66104, "lon": -122.478905, "starting": false, "overabundant": false}, {"name": "Mossback", "url": "https://wdfw.wa.gov/fishing/locations/high-lakes/mossback", "elevation": 3793.0, "area": "0.90 acres", "county": "King", "lat": 47.62671, "lon": -121.45923, "starting": false, "overabundant": false}, {"name": "Mount Ferno Pothole 5", "url": "https://wdfw.wa.gov/fishing/locations/high-lakes/mount-ferno-pothole-5", "elevation": 4396.0, "area": "4.40 acres", "county": "King", "lat": 47.764397, "lon": -121.23711, "starting": false, "overabundant": false}, {"name": "Mouse Lake", "url": "https://wdfw.wa.gov/fishing/locations/high-lakes/mouse", "elevation": 4470.0, "area": "7.90 acres", "county": "Skamania", "lat": 46.360087, "lon": -121.662817, "starting": false, "overabundant": false}, {"name": "MR-11", "url": "https://wdfw.wa.gov/fishing/locations/high-lakes/mr-11", "elevation": 6116.0, "area": "2.80 acres", "county": "Chelan", "lat": 48.41456, "lon": -120.687202, "starting": false, "overabundant": false}, {"name": "MR-9", "url": "https://wdfw.wa.gov/fishing/locations/high-lakes/mr-9", "elevation": 5950.0, "area": "4.50 acres", "county": "Chelan", "lat": 48.432993, "lon": -120.716907, "starting": false, "overabundant": false}, {"name": "Mt Kent - Lower", "url": "https://wdfw.wa.gov/fishing/locations/high-lakes/mt-kent-lower", "elevation": 4419.0, "area": "1.00 acres", "county": "King", "lat": 47.3919, "lon": -121.623559, "starting": false, "overabundant": false}, {"name": "Mt Kent - Upper", "url": "https://wdfw.wa.gov/fishing/locations/high-lakes/mt-kent-upper", "elevation": 4522.0, "area": "1.90 acres", "county": "King", "lat": 47.389699, "lon": -121.62303, "starting": false, "overabundant": false}, {"name": "Mt Townsend Pot", "url": "https://wdfw.wa.gov/fishing/locations/high-lakes/mt-townsend-pot", "elevation": 4834.0, "area": "1.00 acres", "county": "Snohomish", "lat": 47.794799, "lon": -121.379184, "starting": false, "overabundant": false}, {"name": "Mud Lake (Lewis County)", "url": "https://wdfw.wa.gov/fishing/locations/high-lakes/mud-lewis", "elevation": 4870.0, "area": "4.80 acres", "county": "Lewis", "lat": 46.394984, "lon": -121.617442, "starting": false, "overabundant": false}, {"name": "Murphy Pothole - Upper", "url": "https://wdfw.wa.gov/fishing/locations/high-lakes/murphy-pothole-upper", "elevation": 5669.0, "area": "0.40 acres", "county": "King", "lat": 47.678567, "lon": -121.127076, "starting": false, "overabundant": false}, {"name": "My", "url": "https://wdfw.wa.gov/fishing/locations/high-lakes/my", "elevation": 3938.0, "area": "1.30 acres", "county": "King", "lat": 47.449015, "lon": -121.487285, "starting": false, "overabundant": false}, {"name": "Myrtle (Skagit County)", "url": "https://wdfw.wa.gov/fishing/locations/high-lakes/myrtle-skagit", "elevation": 3515.0, "area": "7.20 acres", "county": "Skagit", "lat": 48.320949, "lon": -121.814782, "starting": false, "overabundant": false}, {"name": "Myrtle - Little", "url": "https://wdfw.wa.gov/fishing/locations/high-lakes/myrtle-little", "elevation": 4236.0, "area": "2.30 acres", "county": "King", "lat": 47.559186, "lon": -121.378328, "starting": false, "overabundant": false}, {"name": "N'Most (Two Little - North)", "url": "https://wdfw.wa.gov/fishing/locations/high-lakes/nmost-two-little-north", "elevation": 4191.0, "area": "0.70 acres", "county": "Kittitas", "lat": 46.977213, "lon": -121.009058, "starting": false, "overabundant": false}, {"name": "Nadeau", "url": "https://wdfw.wa.gov/fishing/locations/high-lakes/nadeau", "elevation": 3726.0, "area": "20.50 acres", "county": "King", "lat": 47.548614, "lon": -121.652311, "starting": false, "overabundant": false}, {"name": "Naha Lake (Skamania County)", "url": "https://wdfw.wa.gov/fishing/locations/high-lakes/naha", "elevation": 4773.0, "area": "1.70 acres", "county": "Skamania", "lat": 45.998546, "lon": -121.808487, "starting": false, "overabundant": false}, {"name": "Nazanne", "url": "https://wdfw.wa.gov/fishing/locations/high-lakes/nazanne", "elevation": 4709.0, "area": "9.10 acres", "county": "King", "lat": 47.594532, "lon": -121.291787, "starting": false, "overabundant": false}, {"name": "Nels (Bedal)", "url": "https://wdfw.wa.gov/fishing/locations/high-lakes/nels-bedal", "elevation": 3954.0, "area": "3.40 acres", "county": "Snohomish", "lat": 48.082595, "lon": -121.361086, "starting": false, "overabundant": false}, {"name": "Newaukum Lake", "url": "https://wdfw.wa.gov/fishing/locations/high-lakes/newaukum-lake", "elevation": 2983.0, "area": "16.80 acres", "county": "Lewis", "lat": 46.664601, "lon": -122.474702, "starting": true, "overabundant": false}, {"name": "Nine Hour", "url": "https://wdfw.wa.gov/fishing/locations/high-lakes/nine-hour", "elevation": 3950.0, "area": "5.40 acres", "county": "King", "lat": 47.519199, "lon": -121.51604, "starting": false, "overabundant": false}, {"name": "No Name", "url": "https://wdfw.wa.gov/fishing/locations/high-lakes/no-name", "elevation": 5630.0, "area": "6.60 acres", "county": "King", "lat": 47.601662, "lon": -121.179339, "starting": false, "overabundant": false}, {"name": "No See 'em", "url": "https://wdfw.wa.gov/fishing/locations/high-lakes/no-see-em", "elevation": 4347.0, "area": "1.50 acres", "county": "Pierce", "lat": 47.020345, "lon": -121.906048, "starting": false, "overabundant": false}, {"name": "No See 'em Pot", "url": "https://wdfw.wa.gov/fishing/locations/high-lakes/no-see-em-pot", "elevation": 5186.0, "area": "0.60 acres", "county": "Pierce", "lat": 47.016461, "lon": -121.911433, "starting": false, "overabundant": false}, {"name": "Nomad", "url": "https://wdfw.wa.gov/fishing/locations/high-lakes/nomad", "elevation": 4189.0, "area": "0.50 acres", "county": "Snohomish", "lat": 48.136827, "lon": -121.304046, "starting": false, "overabundant": false}, {"name": "Nordrum Lake", "url": "https://wdfw.wa.gov/fishing/locations/high-lakes/nordrum-lake", "elevation": 3674.0, "area": "53.10 acres", "county": "King", "lat": 47.5556, "lon": -121.436801, "starting": false, "overabundant": false}, {"name": "North", "url": "https://wdfw.wa.gov/fishing/locations/high-lakes/north", "elevation": 4162.0, "area": "31.80 acres", "county": "Snohomish", "lat": 48.13542, "lon": -121.519579, "starting": false, "overabundant": false}, {"name": "North Star - Lower", "url": "https://wdfw.wa.gov/fishing/locations/high-lakes/north-star-lower", "elevation": 4436.0, "area": "1.00 acres", "county": "Snohomish", "lat": 47.856765, "lon": -121.546735, "starting": false, "overabundant": false}, {"name": "North Star - Upper", "url": "https://wdfw.wa.gov/fishing/locations/high-lakes/north-star-upper", "elevation": 4594.0, "area": "0.50 acres", "county": "Snohomish", "lat": 47.857925, "lon": -121.549161, "starting": false, "overabundant": false}, {"name": "Nugget - Lowe", "url": "https://wdfw.wa.gov/fishing/locations/high-lakes/nugget-lowe", "elevation": 5873.0, "area": "4.20 acres", "county": "Okanogan", "lat": 48.611149, "lon": -120.742325, "starting": false, "overabundant": false}, {"name": "Nugget - Upper", "url": "https://wdfw.wa.gov/fishing/locations/high-lakes/nugget-upper", "elevation": 5878.0, "area": "3.60 acres", "county": "Okanogan", "lat": 48.610148, "lon": -120.739279, "starting": false, "overabundant": false}, {"name": "O'Conner Lake", "url": "https://wdfw.wa.gov/fishing/locations/high-lakes/oconner", "elevation": 4824.0, "area": "3.90 acres", "county": "Skamania", "lat": 46.352143, "lon": -122.154474, "starting": false, "overabundant": false}, {"name": "Olallie Lake (Skamania County)", "url": "https://wdfw.wa.gov/fishing/locations/high-lakes/olallie-skamania", "elevation": 4242.0, "area": "13.70 acres", "county": "Skamania", "lat": 46.288947, "lon": -121.616546, "starting": false, "overabundant": false}, {"name": "One", "url": "https://wdfw.wa.gov/fishing/locations/high-lakes/one", "elevation": 5057.0, "area": "1.80 acres", "county": "Yakima", "lat": 46.781204, "lon": -121.444886, "starting": false, "overabundant": false}, {"name": "One Acre", "url": "https://wdfw.wa.gov/fishing/locations/high-lakes/one-acre", "elevation": 4109.0, "area": "2.10 acres", "county": "Snohomish", "lat": 47.912939, "lon": -121.617504, "starting": false, "overabundant": false}, {"name": "Opal", "url": "https://wdfw.wa.gov/fishing/locations/high-lakes/opal", "elevation": 6001.0, "area": "1.00 acres", "county": "Kittitas", "lat": 47.453994, "lon": -121.076937, "starting": false, "overabundant": false}, {"name": "Otter", "url": "https://wdfw.wa.gov/fishing/locations/high-lakes/otter", "elevation": 5039.0, "area": "4.30 acres", "county": "Yakima", "lat": 46.687729, "lon": -121.361388, "starting": false, "overabundant": false}, {"name": "Oval - West", "url": "https://wdfw.wa.gov/fishing/locations/high-lakes/oval-west", "elevation": 6865.0, "area": "17.10 acres", "county": "Okanogan", "lat": 48.276627, "lon": -120.460371, "starting": false, "overabundant": false}, {"name": "Oval Peak - North", "url": "https://wdfw.wa.gov/fishing/locations/high-lakes/oval-peak-north", "elevation": 7153.0, "area": "1.50 acres", "county": "Okanogan", "lat": 48.291337, "lon": -120.41378, "starting": false, "overabundant": false}, {"name": "Overcoat", "url": "https://wdfw.wa.gov/fishing/locations/high-lakes/overcoat", "elevation": 5760.0, "area": "11.40 acres", "county": "King", "lat": 47.516992, "lon": -121.3028, "starting": false, "overabundant": false}, {"name": "Palisade", "url": "https://wdfw.wa.gov/fishing/locations/high-lakes/palisade", "elevation": 5744.0, "area": "5.20 acres", "county": "Snohomish", "lat": 48.234943, "lon": -121.118155, "starting": false, "overabundant": false}, {"name": "Park - Lower", "url": "https://wdfw.wa.gov/fishing/locations/high-lakes/park-lower", "elevation": 4506.0, "area": "9.40 acres", "county": "Kittitas", "lat": 47.448234, "lon": -121.291352, "starting": false, "overabundant": false}, {"name": "Park - Upper", "url": "https://wdfw.wa.gov/fishing/locations/high-lakes/park-upper", "elevation": 4709.0, "area": "10.30 acres", "county": "Kittitas", "lat": 47.449126, "lon": -121.298946, "starting": false, "overabundant": false}, {"name": "Pass", "url": "https://wdfw.wa.gov/fishing/locations/high-lakes/pass", "elevation": 3706.0, "area": "3.10 acres", "county": "Snohomish", "lat": 48.119748, "lon": -121.514906, "starting": false, "overabundant": false}, {"name": "Pear", "url": "https://wdfw.wa.gov/fishing/locations/high-lakes/pear", "elevation": 4813.0, "area": "29.30 acres", "county": "Snohomish", "lat": 47.879287, "lon": -121.171111, "starting": true, "overabundant": false}, {"name": "Pear (Skagit County)", "url": "https://wdfw.wa.gov/fishing/locations/high-lakes/pear-skagit", "elevation": 5231.0, "area": "7.40 acres", "county": "Skagit", "lat": 48.327832, "lon": -121.321298, "starting": false, "overabundant": false}, {"name": "Pear Pothole", "url": "https://wdfw.wa.gov/fishing/locations/high-lakes/pear-pothole", "elevation": 4230.0, "area": "1.40 acres", "county": "King", "lat": 47.563477, "lon": -121.355482, "starting": false, "overabundant": false}, {"name": "Peek-a-boo", "url": "https://wdfw.wa.gov/fishing/locations/high-lakes/peek-a-boo", "elevation": 3906.0, "area": "18.50 acres", "county": "Snohomish", "lat": 48.136868, "lon": -121.47534, "starting": false, "overabundant": false}, {"name": "Peggys Pond", "url": "https://wdfw.wa.gov/fishing/locations/high-lakes/peggys-pond", "elevation": 5587.0, "area": "4.30 acres", "county": "Kittitas", "lat": 47.556134, "lon": -121.141683, "starting": false, "overabundant": false}, {"name": "Pemi Lake (Skamania County)", "url": "https://wdfw.wa.gov/fishing/locations/high-lakes/pemi", "elevation": 3863.0, "area": "2.00 acres", "county": "Skamania", "lat": 45.838237, "lon": -122.104526, "starting": false, "overabundant": false}, {"name": "Pershing", "url": "https://wdfw.wa.gov/fishing/locations/high-lakes/pershing", "elevation": 4565.0, "area": "2.00 acres", "county": "Mason", "lat": 47.565921, "lon": -123.224849, "starting": false, "overabundant": false}, {"name": "Pete Lake", "url": "https://wdfw.wa.gov/fishing/locations/high-lakes/pete-lake", "elevation": 2984.0, "area": "36.50 acres", "county": "Kittitas", "lat": 47.475873, "lon": -121.235953, "starting": true, "overabundant": false}, {"name": "Phantom", "url": "https://wdfw.wa.gov/fishing/locations/high-lakes/phantom", "elevation": 4304.0, "area": "1.00 acres", "county": "Yakima", "lat": 46.526424, "lon": -121.271401, "starting": false, "overabundant": false}, {"name": "Philippa", "url": "https://wdfw.wa.gov/fishing/locations/high-lakes/philippa", "elevation": 3350.0, "area": "121.60 acres", "county": "King", "lat": 47.610263, "lon": -121.620167, "starting": true, "overabundant": false}, {"name": "Picture", "url": "https://wdfw.wa.gov/fishing/locations/high-lakes/picture", "elevation": 4117.0, "area": "3.00 acres", "county": "Whatcom", "lat": 48.865433, "lon": -121.677131, "starting": false, "overabundant": false}, {"name": "Pillar", "url": "https://wdfw.wa.gov/fishing/locations/high-lakes/pillar", "elevation": 5278.0, "area": "3.50 acres", "county": "Yakima", "lat": 46.700316, "lon": -121.363991, "starting": false, "overabundant": false}, {"name": "Pinnacle", "url": "https://wdfw.wa.gov/fishing/locations/high-lakes/pinnacle", "elevation": 3781.0, "area": "6.80 acres", "county": "Snohomish", "lat": 48.05321, "lon": -121.756598, "starting": false, "overabundant": false}, {"name": "Pipe Lake", "url": "https://wdfw.wa.gov/fishing/locations/high-lakes/pipe", "elevation": 5194.0, "area": "8.50 acres", "county": "Lewis", "lat": 46.701198, "lon": -121.388415, "starting": false, "overabundant": false}, {"name": "Pitcher Mtn", "url": "https://wdfw.wa.gov/fishing/locations/high-lakes/pitcher-mtn", "elevation": 4703.0, "area": "4.20 acres", "county": "Pierce", "lat": 47.044642, "lon": -121.86927, "starting": false, "overabundant": false}, {"name": "Placid Lake (Skamania County)", "url": "https://wdfw.wa.gov/fishing/locations/high-lakes/placid", "elevation": 4046.0, "area": "16.50 acres", "county": "Skamania", "lat": 46.041575, "lon": -121.816979, "starting": false, "overabundant": false}, {"name": "Pleasant 2 (Pleasant Valley)", "url": "https://wdfw.wa.gov/fishing/locations/high-lakes/pleasant-2-pleasant-valley", "elevation": 4194.0, "area": "0.50 acres", "county": "Yakima", "lat": 46.934729, "lon": -121.303539, "starting": false, "overabundant": false}, {"name": "Plug - Little", "url": "https://wdfw.wa.gov/fishing/locations/high-lakes/plug-little", "elevation": 5308.0, "area": "0.80 acres", "county": "King", "lat": 47.668818, "lon": -121.15349, "starting": false, "overabundant": false}, {"name": "Pocket", "url": "https://wdfw.wa.gov/fishing/locations/high-lakes/pocket", "elevation": 4587.0, "area": "2.70 acres", "county": "Whatcom", "lat": 48.711935, "lon": -121.843833, "starting": false, "overabundant": false}, {"name": "Poe Mountain", "url": "https://wdfw.wa.gov/fishing/locations/high-lakes/poe-mountain", "elevation": 5429.0, "area": "1.20 acres", "county": "Chelan", "lat": 47.916901, "lon": -121.043329, "starting": false, "overabundant": false}, {"name": "Portage", "url": "https://wdfw.wa.gov/fishing/locations/high-lakes/portage", "elevation": 4635.0, "area": "1.70 acres", "county": "Kittitas", "lat": 47.356222, "lon": -121.208708, "starting": false, "overabundant": false}, {"name": "Pothole Lake", "url": "https://wdfw.wa.gov/fishing/locations/high-lakes/pothole-lake", "elevation": 3674.0, "area": "5.40 acres", "county": "Lewis", "lat": 46.702049, "lon": -121.931971, "starting": false, "overabundant": false}, {"name": "Pratt - Little", "url": "https://wdfw.wa.gov/fishing/locations/high-lakes/pratt-little", "elevation": 4044.0, "area": "4.00 acres", "county": "King", "lat": 47.432094, "lon": -121.50101, "starting": false, "overabundant": false}, {"name": "Ptarmigan - Upper", "url": "https://wdfw.wa.gov/fishing/locations/high-lakes/ptarmigan-upper", "elevation": 4558.0, "area": "13.40 acres", "county": "King", "lat": 47.627112, "lon": -121.21464, "starting": false, "overabundant": false}, {"name": "Pumpkinseed", "url": "https://wdfw.wa.gov/fishing/locations/high-lakes/pumpkinseed", "elevation": 4268.0, "area": "1.20 acres", "county": "King", "lat": 47.531689, "lon": -121.44435, "starting": false, "overabundant": false}, {"name": "Quartz", "url": "https://wdfw.wa.gov/fishing/locations/high-lakes/quartz", "elevation": 6746.0, "area": "7.10 acres", "county": "Okanogan", "lat": 48.957327, "lon": -120.412345, "starting": false, "overabundant": false}, {"name": "Quartz (Snohomish County)", "url": "https://wdfw.wa.gov/fishing/locations/high-lakes/quartz-snohomish", "elevation": 4799.0, "area": "1.10 acres", "county": "Snohomish", "lat": 47.971668, "lon": -121.308799, "starting": false, "overabundant": false}, {"name": "Quill - Lower", "url": "https://wdfw.wa.gov/fishing/locations/high-lakes/quill-lower", "elevation": 4558.0, "area": "0.50 acres", "county": "Whatcom", "lat": 48.669129, "lon": -121.393678, "starting": false, "overabundant": false}, {"name": "Quill - Upper", "url": "https://wdfw.wa.gov/fishing/locations/high-lakes/quill-upper", "elevation": 4514.0, "area": "0.90 acres", "county": "Whatcom", "lat": 48.669567, "lon": -121.392416, "starting": false, "overabundant": false}, {"name": "Rachel", "url": "https://wdfw.wa.gov/fishing/locations/high-lakes/rachel", "elevation": 4664.0, "area": "25.10 acres", "county": "Kittitas", "lat": 47.420569, "lon": -121.330965, "starting": false, "overabundant": false}, {"name": "Rachor", "url": "https://wdfw.wa.gov/fishing/locations/high-lakes/rachor", "elevation": 3494.0, "area": "4.80 acres", "county": "King", "lat": 47.519837, "lon": -121.707404, "starting": false, "overabundant": false}, {"name": "Rainbow", "url": "https://wdfw.wa.gov/fishing/locations/high-lakes/rainbow", "elevation": 4264.0, "area": "6.00 acres", "county": "King", "lat": 47.424743, "lon": -121.536834, "starting": false, "overabundant": false}, {"name": "Rainbow (Whatcom County)", "url": "https://wdfw.wa.gov/fishing/locations/high-lakes/rainbow-whatcom", "elevation": 2920.0, "area": "1.30 acres", "county": "Whatcom", "lat": 48.789018, "lon": -121.711751, "starting": false, "overabundant": false}, {"name": "Rainbow - Upper South", "url": "https://wdfw.wa.gov/fishing/locations/high-lakes/rainbow-upper-south", "elevation": 5868.0, "area": "3.30 acres", "county": "Chelan", "lat": 48.40102, "lon": -120.747592, "starting": false, "overabundant": false}, {"name": "Rainy Lake", "url": "https://wdfw.wa.gov/fishing/locations/high-lakes/rainy-lake", "elevation": 4795.0, "area": "53.10 acres", "county": "Chelan", "lat": 48.501215, "lon": -120.737852, "starting": true, "overabundant": false}, {"name": "Rampart", "url": "https://wdfw.wa.gov/fishing/locations/high-lakes/rampart", "elevation": 6907.0, "area": "8.20 acres", "county": "Okanogan", "lat": 48.821968, "lon": -120.446381, "starting": false, "overabundant": false}, {"name": "Rampart 1", "url": "https://wdfw.wa.gov/fishing/locations/high-lakes/rampart-1", "elevation": 5083.0, "area": "6.30 acres", "county": "Kittitas", "lat": 47.415703, "lon": -121.340449, "starting": false, "overabundant": false}, {"name": "Rampart 2", "url": "https://wdfw.wa.gov/fishing/locations/high-lakes/rampart-2", "elevation": 5082.0, "area": "3.80 acres", "county": "Kittitas", "lat": 47.419297, "lon": -121.33938, "starting": false, "overabundant": false}, {"name": "Rankin", "url": "https://wdfw.wa.gov/fishing/locations/high-lakes/rankin", "elevation": 5079.0, "area": "1.40 acres", "county": "Whatcom", "lat": 48.753249, "lon": -121.890665, "starting": false, "overabundant": false}, {"name": "Red Mtn Pothole", "url": "https://wdfw.wa.gov/fishing/locations/high-lakes/red-mtn-pothole", "elevation": 4846.0, "area": "0.70 acres", "county": "King", "lat": 47.456195, "lon": -121.39488, "starting": false, "overabundant": false}, {"name": "Rettebdel", "url": "https://wdfw.wa.gov/fishing/locations/high-lakes/rettebdel", "elevation": 5164.0, "area": "1.00 acres", "county": "Chelan", "lat": 47.64223, "lon": -121.093042, "starting": false, "overabundant": false}, {"name": "Richmond", "url": "https://wdfw.wa.gov/fishing/locations/high-lakes/richmond", "elevation": 5994.0, "area": "2.10 acres", "county": "Yakima", "lat": 46.84673, "lon": -121.245629, "starting": false, "overabundant": false}, {"name": "Ridge", "url": "https://wdfw.wa.gov/fishing/locations/high-lakes/ridge", "elevation": 5270.0, "area": "2.00 acres", "county": "Kittitas", "lat": 47.461335, "lon": -121.367189, "starting": false, "overabundant": false}, {"name": "Ridge (Kittitas County)", "url": "https://wdfw.wa.gov/fishing/locations/high-lakes/ridge-kittitas", "elevation": 4461.0, "area": "0.70 acres", "county": "Kittitas", "lat": 47.378405, "lon": -121.330629, "starting": false, "overabundant": false}, {"name": "Ridley", "url": "https://wdfw.wa.gov/fishing/locations/high-lakes/ridley", "elevation": 3147.0, "area": "6.90 acres", "county": "Whatcom", "lat": 48.948777, "lon": -121.031119, "starting": false, "overabundant": false}, {"name": "Rimrock Lake", "url": "https://wdfw.wa.gov/fishing/locations/high-lakes/rimrock-lake", "elevation": 2926.0, "area": "2546.30 acres", "county": "Yakima", "lat": 46.63891, "lon": -121.159766, "starting": true, "overabundant": false}, {"name": "Rivord", "url": "https://wdfw.wa.gov/fishing/locations/high-lakes/rivord", "elevation": 5342.0, "area": "22.40 acres", "county": "Snohomish", "lat": 48.213017, "lon": -121.207855, "starting": false, "overabundant": false}, {"name": "Rock (King County)", "url": "https://wdfw.wa.gov/fishing/locations/high-lakes/rock-king2", "elevation": 3876.0, "area": "6.20 acres", "county": "King", "lat": 47.545822, "lon": -121.442925, "starting": false, "overabundant": false}, {"name": "Rock Lake (Skamania County)", "url": "https://wdfw.wa.gov/fishing/locations/high-lakes/rock-skamania", "elevation": 4780.0, "area": "1.90 acres", "county": "Skamania", "lat": 45.998452, "lon": -121.804824, "starting": false, "overabundant": false}, {"name": "Rock Lake 1", "url": "https://wdfw.wa.gov/fishing/locations/high-lakes/rock-lake-1", "elevation": 3593.0, "area": "4.50 acres", "county": "Okanogan", "lat": 48.456684, "lon": -119.791986, "starting": false, "overabundant": false}, {"name": "Rock Lake 2", "url": "https://wdfw.wa.gov/fishing/locations/high-lakes/rock-lake-2", "elevation": 3579.0, "area": "2.90 acres", "county": "Okanogan", "lat": 48.452771, "lon": -119.791109, "starting": false, "overabundant": false}, {"name": "Rock Lake Little (Skamania County)", "url": "https://wdfw.wa.gov/fishing/locations/high-lakes/rock-little", "elevation": 4782.0, "area": "0.90 acres", "county": "Skamania", "lat": 45.997287, "lon": -121.805025, "starting": false, "overabundant": false}, {"name": "Rock Rabbit - Lower", "url": "https://wdfw.wa.gov/fishing/locations/high-lakes/rock-rabbit-lower", "elevation": 4143.0, "area": "1.20 acres", "county": "Kittitas", "lat": 47.37186, "lon": -121.32688, "starting": false, "overabundant": false}, {"name": "Rock Rabbit - Upper", "url": "https://wdfw.wa.gov/fishing/locations/high-lakes/rock-rabbit-upper", "elevation": 4199.0, "area": "4.20 acres", "county": "Kittitas", "lat": 47.371024, "lon": -121.323724, "starting": false, "overabundant": false}, {"name": "Rockdale Lake", "url": "https://wdfw.wa.gov/fishing/locations/high-lakes/rockdale-lake", "elevation": 3548.0, "area": "2.80 acres", "county": "King", "lat": 47.389713, "lon": -121.430084, "starting": true, "overabundant": false}, {"name": "Roger", "url": "https://wdfw.wa.gov/fishing/locations/high-lakes/roger", "elevation": 5864.0, "area": "5.80 acres", "county": "Okanogan", "lat": 48.650034, "lon": -119.968745, "starting": false, "overabundant": false}, {"name": "Root", "url": "https://wdfw.wa.gov/fishing/locations/high-lakes/root", "elevation": 5311.0, "area": "4.70 acres", "county": "Yakima", "lat": 46.808645, "lon": -121.362728, "starting": false, "overabundant": false}, {"name": "Rose", "url": "https://wdfw.wa.gov/fishing/locations/high-lakes/rose", "elevation": 4300.0, "area": "1.40 acres", "county": "Snohomish", "lat": 47.90725, "lon": -121.623378, "starting": false, "overabundant": false}, {"name": "Round", "url": "https://wdfw.wa.gov/fishing/locations/high-lakes/round", "elevation": 5054.0, "area": "16.50 acres", "county": "Snohomish", "lat": 48.121718, "lon": -121.309881, "starting": false, "overabundant": false}, {"name": "Ruby", "url": "https://wdfw.wa.gov/fishing/locations/high-lakes/ruby", "elevation": 5435.0, "area": "2.40 acres", "county": "Snohomish", "lat": 48.071427, "lon": -121.263442, "starting": false, "overabundant": false}, {"name": "S'Most (Two Little - South)", "url": "https://wdfw.wa.gov/fishing/locations/high-lakes/smost-two-little-south", "elevation": 4231.0, "area": "0.60 acres", "county": "Kittitas", "lat": 46.976259, "lon": -121.008409, "starting": false, "overabundant": false}, {"name": "Saddle", "url": "https://wdfw.wa.gov/fishing/locations/high-lakes/saddle", "elevation": 3784.0, "area": "3.50 acres", "county": "Snohomish", "lat": 48.178748, "lon": -121.756885, "starting": false, "overabundant": false}, {"name": "Sally Ann", "url": "https://wdfw.wa.gov/fishing/locations/high-lakes/sally-ann", "elevation": 5475.0, "area": "2.20 acres", "county": "Chelan", "lat": 47.961356, "lon": -121.152994, "starting": false, "overabundant": false}, {"name": "Sandstone", "url": "https://wdfw.wa.gov/fishing/locations/high-lakes/sandstone", "elevation": 3439.0, "area": "1.20 acres", "county": "Yakima", "lat": 46.946427, "lon": -121.176123, "starting": false, "overabundant": false}, {"name": "Sawyer Creek Pot", "url": "https://wdfw.wa.gov/fishing/locations/high-lakes/sawyer-creek-pot", "elevation": 4836.0, "area": "1.00 acres", "county": "King", "lat": 47.661466, "lon": -121.206785, "starting": false, "overabundant": false}, {"name": "Scatter Lake", "url": "https://wdfw.wa.gov/fishing/locations/high-lakes/scatter-lake", "elevation": 7052.0, "area": "6.90 acres", "county": "Okanogan", "lat": 48.470841, "lon": -120.517377, "starting": true, "overabundant": false}, {"name": "Schaefer Lake", "url": "https://wdfw.wa.gov/fishing/locations/high-lakes/schaefer-lake", "elevation": 5135.0, "area": "80.90 acres", "county": "Chelan", "lat": 47.962722, "lon": -120.84261, "starting": true, "overabundant": false}, {"name": "Scheelite", "url": "https://wdfw.wa.gov/fishing/locations/high-lakes/scheelite", "elevation": 7348.0, "area": "3.10 acres", "county": "Okanogan", "lat": 48.980205, "lon": -120.067563, "starting": false, "overabundant": false}, {"name": "Scout", "url": "https://wdfw.wa.gov/fishing/locations/high-lakes/scout", "elevation": 3864.0, "area": "5.50 acres", "county": "King", "lat": 47.353154, "lon": -121.493869, "starting": false, "overabundant": false}, {"name": "Scrabble", "url": "https://wdfw.wa.gov/fishing/locations/high-lakes/scrabble", "elevation": 4799.0, "area": "1.70 acres", "county": "Snohomish", "lat": 47.820477, "lon": -121.159106, "starting": false, "overabundant": false}, {"name": "Serene", "url": "https://wdfw.wa.gov/fishing/locations/high-lakes/serene", "elevation": 2525.0, "area": "49.90 acres", "county": "Snohomish", "lat": 47.781821, "lon": -121.570379, "starting": true, "overabundant": false}, {"name": "Sheepherder", "url": "https://wdfw.wa.gov/fishing/locations/high-lakes/sheepherder", "elevation": 4952.0, "area": "3.20 acres", "county": "Yakima", "lat": 46.985172, "lon": -121.362135, "starting": false, "overabundant": false}, {"name": "Shelf", "url": "https://wdfw.wa.gov/fishing/locations/high-lakes/shelf", "elevation": 4026.0, "area": "4.10 acres", "county": "Skagit", "lat": 48.333768, "lon": -121.758397, "starting": false, "overabundant": false}, {"name": "Shellrock", "url": "https://wdfw.wa.gov/fishing/locations/high-lakes/shellrock", "elevation": 4930.0, "area": "10.70 acres", "county": "Yakima", "lat": 46.685099, "lon": -121.345549, "starting": false, "overabundant": false}, {"name": "Shuksan Pot - Large", "url": "https://wdfw.wa.gov/fishing/locations/high-lakes/shuksan-pot-large", "elevation": 4237.0, "area": "2.50 acres", "county": "Whatcom", "lat": 48.766747, "lon": -121.57293, "starting": false, "overabundant": false}, {"name": "Silver", "url": "https://wdfw.wa.gov/fishing/locations/high-lakes/silver", "elevation": 5833.0, "area": "2.70 acres", "county": "Okanogan", "lat": 48.300172, "lon": -120.451094, "starting": false, "overabundant": false}, {"name": "Silver 2", "url": "https://wdfw.wa.gov/fishing/locations/high-lakes/silver-2", "elevation": 5391.0, "area": "2.30 acres", "county": "Jefferson", "lat": 47.844145, "lon": -123.071024, "starting": false, "overabundant": false}, {"name": "Six", "url": "https://wdfw.wa.gov/fishing/locations/high-lakes/six", "elevation": 3429.0, "area": "1.70 acres", "county": "Snohomish", "lat": 48.039056, "lon": -121.768077, "starting": false, "overabundant": false}, {"name": "Skaro", "url": "https://wdfw.wa.gov/fishing/locations/high-lakes/skaro", "elevation": 4500.0, "area": "13.90 acres", "county": "Skagit", "lat": 48.428058, "lon": -121.265072, "starting": false, "overabundant": false}, {"name": "Skyline", "url": "https://wdfw.wa.gov/fishing/locations/high-lakes/skyline", "elevation": 5104.0, "area": "3.20 acres", "county": "King", "lat": 47.756838, "lon": -121.097867, "starting": false, "overabundant": false}, {"name": "Slate", "url": "https://wdfw.wa.gov/fishing/locations/high-lakes/slate", "elevation": 6667.0, "area": "6.40 acres", "county": "Okanogan", "lat": 48.443898, "lon": -120.465899, "starting": false, "overabundant": false}, {"name": "Slide Lake", "url": "https://wdfw.wa.gov/fishing/locations/high-lakes/slide-lake", "elevation": 3114.0, "area": "30.60 acres", "county": "Skagit", "lat": 48.43071, "lon": -121.348826, "starting": true, "overabundant": false}, {"name": "SMC", "url": "https://wdfw.wa.gov/fishing/locations/high-lakes/smc", "elevation": 3706.0, "area": "43.00 acres", "county": "King", "lat": 47.544758, "lon": -121.656753, "starting": false, "overabundant": false}, {"name": "Smith", "url": "https://wdfw.wa.gov/fishing/locations/high-lakes/smith", "elevation": 6985.0, "area": "3.10 acres", "county": "Okanogan", "lat": 48.976882, "lon": -119.917853, "starting": false, "overabundant": false}, {"name": "Smith (King County)", "url": "https://wdfw.wa.gov/fishing/locations/high-lakes/smith-king", "elevation": 4633.0, "area": "2.60 acres", "county": "King", "lat": 47.60774, "lon": -121.432853, "starting": false, "overabundant": false}, {"name": "Smith Pothole - South", "url": "https://wdfw.wa.gov/fishing/locations/high-lakes/smith-pothole-south", "elevation": 4670.0, "area": "0.40 acres", "county": "King", "lat": 47.606703, "lon": -121.433136, "starting": false, "overabundant": false}, {"name": "Snoqualmie Lake", "url": "https://wdfw.wa.gov/fishing/locations/high-lakes/snoqualmie-lake", "elevation": 3151.0, "area": "123.60 acres", "county": "King", "lat": 47.566558, "lon": -121.412831, "starting": true, "overabundant": false}, {"name": "Snoqualmie Lk Potholes - Lower", "url": "https://wdfw.wa.gov/fishing/locations/high-lakes/snoqualmie-lk-potholes-lower", "elevation": 3427.0, "area": "5.70 acres", "county": "King", "lat": 47.559201, "lon": -121.403551, "starting": false, "overabundant": false}, {"name": "Snoqualmie Lk Potholes - Upper", "url": "https://wdfw.wa.gov/fishing/locations/high-lakes/snoqualmie-lk-potholes-upper", "elevation": 3551.0, "area": "3.30 acres", "county": "King", "lat": 47.559752, "lon": -121.398753, "starting": false, "overabundant": false}, {"name": "Snow  Lake Pot - Upper", "url": "https://wdfw.wa.gov/fishing/locations/high-lakes/snow--lake-pot-upper", "elevation": 4507.0, "area": "1.00 acres", "county": "King", "lat": 47.463692, "lon": -121.434565, "starting": false, "overabundant": false}, {"name": "Snow Lake (King County)", "url": "https://wdfw.wa.gov/fishing/locations/high-lakes/snow-lake-king", "elevation": 4020.0, "area": "152.90 acres", "county": "King", "lat": 47.467698, "lon": -121.456444, "starting": true, "overabundant": false}, {"name": "Snow Lake (Lewis County)", "url": "https://wdfw.wa.gov/fishing/locations/high-lakes/snow", "elevation": 4939.0, "area": "7.60 acres", "county": "Lewis", "lat": 46.723318, "lon": -121.401974, "starting": false, "overabundant": false}, {"name": "Snow Lake (Mason County)", "url": "https://wdfw.wa.gov/fishing/locations/high-lakes/snow-lake", "elevation": 3557.0, "area": "6.00 acres", "county": "Mason", "lat": 47.483958, "lon": -123.400881, "starting": false, "overabundant": false}, {"name": "Snow Lake Pot - Lower", "url": "https://wdfw.wa.gov/fishing/locations/high-lakes/snow-lake-pot-lower", "elevation": 4231.0, "area": "2.50 acres", "county": "King", "lat": 47.464641, "lon": -121.43858, "starting": false, "overabundant": false}, {"name": "Snowflake", "url": "https://wdfw.wa.gov/fishing/locations/high-lakes/snowflake", "elevation": 4950.0, "area": "1.70 acres", "county": "King", "lat": 47.54203, "lon": -121.372483, "starting": false, "overabundant": false}, {"name": "Snowking", "url": "https://wdfw.wa.gov/fishing/locations/high-lakes/snowking", "elevation": 4464.0, "area": "25.60 acres", "county": "Skagit", "lat": 48.42485, "lon": -121.262112, "starting": false, "overabundant": false}, {"name": "Snowplow", "url": "https://wdfw.wa.gov/fishing/locations/high-lakes/snowplow", "elevation": 4512.0, "area": "1.40 acres", "county": "Yakima", "lat": 46.108131, "lon": -121.397788, "starting": false, "overabundant": false}, {"name": "Snowshoe", "url": "https://wdfw.wa.gov/fishing/locations/high-lakes/snowshoe", "elevation": 4883.0, "area": "1.70 acres", "county": "Snohomish", "lat": 48.254322, "lon": -121.120502, "starting": false, "overabundant": false}, {"name": "Snowshoe - East", "url": "https://wdfw.wa.gov/fishing/locations/high-lakes/snowshoe-east", "elevation": 6791.0, "area": "1.20 acres", "county": "Okanogan", "lat": 48.31686, "lon": -120.464861, "starting": false, "overabundant": false}, {"name": "Snowshoe - West", "url": "https://wdfw.wa.gov/fishing/locations/high-lakes/snowshoe-west", "elevation": 6313.0, "area": "2.70 acres", "county": "Okanogan", "lat": 48.313484, "lon": -120.47363, "starting": false, "overabundant": false}, {"name": "Snowslide", "url": "https://wdfw.wa.gov/fishing/locations/high-lakes/snowslide", "elevation": 4265.0, "area": "8.20 acres", "county": "Snohomish", "lat": 47.888734, "lon": -121.527564, "starting": false, "overabundant": false}, {"name": "Snowslide Pot 2", "url": "https://wdfw.wa.gov/fishing/locations/high-lakes/snowslide-pot-2", "elevation": 4436.0, "area": "0.90 acres", "county": "Snohomish", "lat": 47.888163, "lon": -121.521144, "starting": false, "overabundant": false}, {"name": "Soda Peaks Lake (Skamania County)", "url": "https://wdfw.wa.gov/fishing/locations/high-lakes/soda-peaks", "elevation": 3784.0, "area": "7.40 acres", "county": "Skamania", "lat": 45.883817, "lon": -122.048355, "starting": false, "overabundant": false}, {"name": "Son of a Gunn", "url": "https://wdfw.wa.gov/fishing/locations/high-lakes/son-of-a-gunn", "elevation": 4560.0, "area": "0.60 acres", "county": "Snohomish", "lat": 47.828795, "lon": -121.461406, "starting": false, "overabundant": false}, {"name": "Sonny Boy 2", "url": "https://wdfw.wa.gov/fishing/locations/high-lakes/sonny-boy-2", "elevation": 4746.0, "area": "2.50 acres", "county": "Skagit", "lat": 48.409733, "lon": -121.164839, "starting": false, "overabundant": false}, {"name": "Source", "url": "https://wdfw.wa.gov/fishing/locations/high-lakes/source", "elevation": 3755.0, "area": "0.50 acres", "county": "King", "lat": 47.455602, "lon": -121.45207, "starting": false, "overabundant": false}, {"name": "South (Snohomish County)", "url": "https://wdfw.wa.gov/fishing/locations/high-lakes/south-snohomish", "elevation": 4546.0, "area": "12.00 acres", "county": "Snohomish", "lat": 48.098975, "lon": -121.4828, "starting": false, "overabundant": false}, {"name": "South Creek Butte", "url": "https://wdfw.wa.gov/fishing/locations/high-lakes/south-creek-butte", "elevation": 6773.0, "area": "2.70 acres", "county": "Okanogan", "lat": 48.439381, "lon": -120.619313, "starting": false, "overabundant": false}, {"name": "Spectacle Lake", "url": "https://wdfw.wa.gov/fishing/locations/high-lakes/spectacle-lake", "elevation": 4264.0, "area": "77.80 acres", "county": "Kittitas", "lat": 47.461903, "lon": -121.280689, "starting": true, "overabundant": false}, {"name": "Spirit", "url": "https://wdfw.wa.gov/fishing/locations/high-lakes/spirit", "elevation": 5628.0, "area": "1.60 acres", "county": "Chelan", "lat": 47.489446, "lon": -120.963284, "starting": false, "overabundant": false}, {"name": "Splendor", "url": "https://wdfw.wa.gov/fishing/locations/high-lakes/splendor", "elevation": 4587.0, "area": "2.70 acres", "county": "Skagit", "lat": 48.549659, "lon": -121.558541, "starting": false, "overabundant": false}, {"name": "Springsteen", "url": "https://wdfw.wa.gov/fishing/locations/high-lakes/springsteen", "elevation": 3513.0, "area": "15.50 acres", "county": "Skagit", "lat": 48.623769, "lon": -121.847819, "starting": false, "overabundant": false}, {"name": "Sprite", "url": "https://wdfw.wa.gov/fishing/locations/high-lakes/sprite", "elevation": 5990.0, "area": "3.20 acres", "county": "Chelan", "lat": 47.541589, "lon": -121.053598, "starting": false, "overabundant": false}, {"name": "Spud Lake", "url": "https://wdfw.wa.gov/fishing/locations/high-lakes/spud", "elevation": 2985.0, "area": "2.20 acres", "county": "Lewis", "lat": 46.664007, "lon": -122.478912, "starting": false, "overabundant": false}, {"name": "Square", "url": "https://wdfw.wa.gov/fishing/locations/high-lakes/square", "elevation": 4994.0, "area": "73.30 acres", "county": "Chelan", "lat": 47.646913, "lon": -121.120015, "starting": true, "overabundant": false}, {"name": "Squaw", "url": "https://wdfw.wa.gov/fishing/locations/high-lakes/squaw", "elevation": 4870.0, "area": "8.80 acres", "county": "Kittitas", "lat": 47.534773, "lon": -121.113991, "starting": false, "overabundant": false}, {"name": "Squaw Pd Upper", "url": "https://wdfw.wa.gov/fishing/locations/high-lakes/squaw-pd-upper", "elevation": 5358.0, "area": "1.00 acres", "county": "Kittitas", "lat": 47.531125, "lon": -121.115668, "starting": false, "overabundant": false}, {"name": "St. John Lake", "url": "https://wdfw.wa.gov/fishing/locations/high-lakes/st-john", "elevation": 5111.0, "area": "1.70 acres", "county": "Lewis", "lat": 46.469845, "lon": -121.619345, "starting": false, "overabundant": false}, {"name": "St. Michael Lake", "url": "https://wdfw.wa.gov/fishing/locations/high-lakes/st-michael", "elevation": 4706.0, "area": "6.40 acres", "county": "Lewis", "lat": 46.461211, "lon": -121.625327, "starting": false, "overabundant": false}, {"name": "Stag", "url": "https://wdfw.wa.gov/fishing/locations/high-lakes/stag", "elevation": 4947.0, "area": "7.80 acres", "county": "Skagit", "lat": 48.384481, "lon": -121.283954, "starting": false, "overabundant": false}, {"name": "Steamboat Lake (Skamania County)", "url": "https://wdfw.wa.gov/fishing/locations/high-lakes/steamboat", "elevation": 4026.0, "area": "13.00 acres", "county": "Skamania", "lat": 46.129212, "lon": -121.714638, "starting": false, "overabundant": false}, {"name": "Steamboat Lake Little (Skamania County)", "url": "https://wdfw.wa.gov/fishing/locations/high-lakes/steamboat-little", "elevation": 3909.0, "area": "3.60 acres", "county": "Skamania", "lat": 46.131717, "lon": -121.710629, "starting": false, "overabundant": false}, {"name": "Steffen Brothers Reservoir", "url": "https://wdfw.wa.gov/fishing/locations/high-lakes/steffen-brothers-reservoir", "elevation": 3788.0, "area": "4.60 acres", "county": "Chelan", "lat": 47.286349, "lon": -120.339606, "starting": false, "overabundant": false}, {"name": "Stilwell", "url": "https://wdfw.wa.gov/fishing/locations/high-lakes/stilwell", "elevation": 4136.0, "area": "3.80 acres", "county": "Skagit", "lat": 48.59327, "lon": -121.585951, "starting": false, "overabundant": false}, {"name": "Stirrup Lake", "url": "https://wdfw.wa.gov/fishing/locations/high-lakes/stirrup-lake", "elevation": 3550.0, "area": "8.90 acres", "county": "Kittitas", "lat": 47.295299, "lon": -121.424478, "starting": true, "overabundant": false}, {"name": "Stone", "url": "https://wdfw.wa.gov/fishing/locations/high-lakes/stone", "elevation": 3880.0, "area": "0.80 acres", "county": "Snohomish", "lat": 47.7895, "lon": -121.409343, "starting": false, "overabundant": false}, {"name": "Stonesthrow", "url": "https://wdfw.wa.gov/fishing/locations/high-lakes/stonesthrow", "elevation": 4422.0, "area": "1.50 acres", "county": "Kittitas", "lat": 47.379253, "lon": -121.328002, "starting": false, "overabundant": false}, {"name": "String - Upper", "url": "https://wdfw.wa.gov/fishing/locations/high-lakes/string-upper", "elevation": 4944.0, "area": "1.80 acres", "county": "Whatcom", "lat": 48.813148, "lon": -121.657646, "starting": false, "overabundant": false}, {"name": "Sub Zero", "url": "https://wdfw.wa.gov/fishing/locations/high-lakes/sub-zero", "elevation": 6636.0, "area": "9.60 acres", "county": "Whatcom", "lat": 48.962391, "lon": -120.881547, "starting": false, "overabundant": false}, {"name": "Sulphur Mtn", "url": "https://wdfw.wa.gov/fishing/locations/high-lakes/sulphur-mtn", "elevation": 5189.0, "area": "4.90 acres", "county": "Snohomish", "lat": 48.245812, "lon": -121.138286, "starting": false, "overabundant": false}, {"name": "Summit", "url": "https://wdfw.wa.gov/fishing/locations/high-lakes/summit", "elevation": 3880.0, "area": "8.40 acres", "county": "Snohomish", "lat": 48.048936, "lon": -121.77448, "starting": false, "overabundant": false}, {"name": "Summit Chief", "url": "https://wdfw.wa.gov/fishing/locations/high-lakes/summit-chief", "elevation": 5350.0, "area": "3.80 acres", "county": "Kittitas", "lat": 47.51261, "lon": -121.255681, "starting": false, "overabundant": false}, {"name": "Summit Lake", "url": "https://wdfw.wa.gov/fishing/locations/high-lakes/summit-lake-okanogan", "elevation": 4256.0, "area": "16.10 acres", "county": "Okanogan", "lat": 48.886022, "lon": -119.34055, "starting": false, "overabundant": false}, {"name": "Summit Lake (Pierce County)", "url": "https://wdfw.wa.gov/fishing/locations/high-lakes/summit-lake-pierce", "elevation": 5443.0, "area": "21.50 acres", "county": "Pierce", "lat": 47.039674, "lon": -121.831477, "starting": true, "overabundant": false}, {"name": "Sunbow", "url": "https://wdfw.wa.gov/fishing/locations/high-lakes/sunbow", "elevation": 5881.0, "area": "3.60 acres", "county": "Snohomish", "lat": 48.230137, "lon": -121.107602, "starting": false, "overabundant": false}, {"name": "Sunrise", "url": "https://wdfw.wa.gov/fishing/locations/high-lakes/sunrise", "elevation": 7233.0, "area": "8.80 acres", "county": "Okanogan", "lat": 48.160095, "lon": -120.354506, "starting": false, "overabundant": false}, {"name": "Sunset", "url": "https://wdfw.wa.gov/fishing/locations/high-lakes/sunset", "elevation": 4184.0, "area": "37.80 acres", "county": "Snohomish", "lat": 47.817864, "lon": -121.396265, "starting": false, "overabundant": false}, {"name": "Surprise Lake (King County)", "url": "https://wdfw.wa.gov/fishing/locations/high-lakes/surprise-lake", "elevation": 4512.0, "area": "22.60 acres", "county": "King", "lat": 47.66798, "lon": -121.140727, "starting": true, "overabundant": false}, {"name": "Surprise Lake (Pierce County)", "url": "https://wdfw.wa.gov/fishing/locations/high-lakes/surprise-pierce", "elevation": 4412.0, "area": "8.30 acres", "county": "Pierce", "lat": 47.02332, "lon": -121.860883, "starting": false, "overabundant": false}, {"name": "Surprise Lake (Skamania County)", "url": "https://wdfw.wa.gov/fishing/locations/high-lakes/surprise-16", "elevation": 4189.0, "area": "2.00 acres", "county": "Skamania", "lat": 46.085519, "lon": -121.758649, "starting": false, "overabundant": false}, {"name": "Surprise Lake (Yakima County)", "url": "https://wdfw.wa.gov/fishing/locations/high-lakes/surprise", "elevation": 5259.0, "area": "7.10 acres", "county": "Yakima", "lat": 46.469207, "lon": -121.35942, "starting": false, "overabundant": false}, {"name": "Susan Jane", "url": "https://wdfw.wa.gov/fishing/locations/high-lakes/susan-jane", "elevation": 4591.0, "area": "2.00 acres", "county": "Chelan", "lat": 47.721283, "lon": -121.066413, "starting": false, "overabundant": false}, {"name": "Swallow - South", "url": "https://wdfw.wa.gov/fishing/locations/high-lakes/swallow-south", "elevation": 5520.0, "area": "8.90 acres", "county": "Chelan", "lat": 47.621795, "lon": -121.093841, "starting": false, "overabundant": false}, {"name": "Swallow - West", "url": "https://wdfw.wa.gov/fishing/locations/high-lakes/swallow-west", "elevation": 5596.0, "area": "2.70 acres", "county": "Chelan", "lat": 47.625716, "lon": -121.112772, "starting": false, "overabundant": false}, {"name": "Swamp Lake", "url": "https://wdfw.wa.gov/fishing/locations/high-lakes/swamp-lake", "elevation": 4799.0, "area": "50.50 acres", "county": "Yakima", "lat": 46.833117, "lon": -121.433422, "starting": true, "overabundant": false}, {"name": "Swan", "url": "https://wdfw.wa.gov/fishing/locations/high-lakes/swan", "elevation": 4030.0, "area": "7.30 acres", "county": "Kittitas", "lat": 47.375515, "lon": -121.320324, "starting": false, "overabundant": false}, {"name": "Swedes", "url": "https://wdfw.wa.gov/fishing/locations/high-lakes/swedes", "elevation": 5915.0, "area": "3.40 acres", "county": "Chelan", "lat": 47.591207, "lon": -121.092605, "starting": false, "overabundant": false}, {"name": "Sweetpea", "url": "https://wdfw.wa.gov/fishing/locations/high-lakes/sweetpea", "elevation": 5553.0, "area": "9.00 acres", "county": "Skagit", "lat": 48.600949, "lon": -120.943978, "starting": false, "overabundant": false}, {"name": "Swimming Deer", "url": "https://wdfw.wa.gov/fishing/locations/high-lakes/swimming-deer", "elevation": 4909.0, "area": "2.10 acres", "county": "Chelan", "lat": 47.710452, "lon": -121.062027, "starting": false, "overabundant": false}, {"name": "T'ahl (Tahl)", "url": "https://wdfw.wa.gov/fishing/locations/high-lakes/tahl-tahl", "elevation": 5684.0, "area": "4.10 acres", "county": "King", "lat": 47.574163, "lon": -121.264779, "starting": false, "overabundant": false}, {"name": "Takhlakh Lake (Skamania County)", "url": "https://wdfw.wa.gov/fishing/locations/high-lakes/takhlakh-lake", "elevation": 4389.0, "area": "32.60 acres", "county": "Skamania", "lat": 46.278152, "lon": -121.596481, "starting": false, "overabundant": false}, {"name": "Talapus", "url": "https://wdfw.wa.gov/fishing/locations/high-lakes/talapus", "elevation": 3264.0, "area": "17.40 acres", "county": "King", "lat": 47.415077, "lon": -121.518327, "starting": false, "overabundant": false}, {"name": "Talus", "url": "https://wdfw.wa.gov/fishing/locations/high-lakes/talus", "elevation": 5345.0, "area": "4.20 acres", "county": "King", "lat": 47.619442, "lon": -121.122298, "starting": false, "overabundant": false}, {"name": "Talus Slope", "url": "https://wdfw.wa.gov/fishing/locations/high-lakes/talus-slope", "elevation": 4147.0, "area": "1.00 acres", "county": "Kittitas", "lat": 47.310013, "lon": -121.436941, "starting": false, "overabundant": false}, {"name": "Taneum", "url": "https://wdfw.wa.gov/fishing/locations/high-lakes/taneum", "elevation": 5271.0, "area": "3.20 acres", "county": "Kittitas", "lat": 47.06101, "lon": -121.042957, "starting": false, "overabundant": false}, {"name": "Tank - North", "url": "https://wdfw.wa.gov/fishing/locations/high-lakes/tank-north", "elevation": 5799.0, "area": "2.20 acres", "county": "King", "lat": 47.565868, "lon": -121.26502, "starting": false, "overabundant": false}, {"name": "Tank - South", "url": "https://wdfw.wa.gov/fishing/locations/high-lakes/tank-south", "elevation": 5800.0, "area": "2.00 acres", "county": "King", "lat": 47.561426, "lon": -121.26385, "starting": false, "overabundant": false}, {"name": "Terence", "url": "https://wdfw.wa.gov/fishing/locations/high-lakes/terence", "elevation": 5544.0, "area": "13.50 acres", "county": "Kittitas", "lat": 47.456818, "lon": -121.089425, "starting": false, "overabundant": false}, {"name": "Terrace - TB 1", "url": "https://wdfw.wa.gov/fishing/locations/high-lakes/terrace-tb-1", "elevation": 5026.0, "area": "1.90 acres", "county": "King", "lat": 47.61869, "lon": -121.206885, "starting": false, "overabundant": false}, {"name": "Thomas Lake (Skamania County)", "url": "https://wdfw.wa.gov/fishing/locations/high-lakes/thomas", "elevation": 4304.0, "area": "11.00 acres", "county": "Skamania", "lat": 46.002985, "lon": -121.82933, "starting": false, "overabundant": false}, {"name": "Thompson", "url": "https://wdfw.wa.gov/fishing/locations/high-lakes/thompson", "elevation": 3654.0, "area": "45.20 acres", "county": "King", "lat": 47.455146, "lon": -121.586106, "starting": false, "overabundant": false}, {"name": "Thornton", "url": "https://wdfw.wa.gov/fishing/locations/high-lakes/thornton", "elevation": 4407.0, "area": "18.70 acres", "county": "Snohomish", "lat": 48.204908, "lon": -121.407024, "starting": false, "overabundant": false}, {"name": "Thornton - Lower", "url": "https://wdfw.wa.gov/fishing/locations/high-lakes/thornton-lower", "elevation": 4486.0, "area": "52.00 acres", "county": "Whatcom", "lat": 48.684154, "lon": -121.327937, "starting": false, "overabundant": false}, {"name": "Thornton - Middle", "url": "https://wdfw.wa.gov/fishing/locations/high-lakes/thornton-middle", "elevation": 4701.0, "area": "11.70 acres", "county": "Whatcom", "lat": 48.689622, "lon": -121.335368, "starting": false, "overabundant": false}, {"name": "Thorp", "url": "https://wdfw.wa.gov/fishing/locations/high-lakes/thorp", "elevation": 4674.0, "area": "9.10 acres", "county": "Kittitas", "lat": 47.366399, "lon": -121.199701, "starting": false, "overabundant": false}, {"name": "Three Sombreros", "url": "https://wdfw.wa.gov/fishing/locations/high-lakes/three-sombreros", "elevation": 5070.0, "area": "0.50 acres", "county": "Yakima", "lat": 47.013062, "lon": -121.382846, "starting": false, "overabundant": false}, {"name": "Thunder", "url": "https://wdfw.wa.gov/fishing/locations/high-lakes/thunder", "elevation": 3467.0, "area": "0.40 acres", "county": "Yakima", "lat": 46.67418, "lon": -121.150406, "starting": false, "overabundant": false}, {"name": "Thunder 1", "url": "https://wdfw.wa.gov/fishing/locations/high-lakes/thunder-1", "elevation": 4041.0, "area": "0.70 acres", "county": "Skagit", "lat": 48.590084, "lon": -121.635815, "starting": false, "overabundant": false}, {"name": "Thunder 2", "url": "https://wdfw.wa.gov/fishing/locations/high-lakes/thunder-2", "elevation": 3978.0, "area": "1.10 acres", "county": "Skagit", "lat": 48.58781, "lon": -121.635447, "starting": false, "overabundant": false}, {"name": "Thunder Mtn 1", "url": "https://wdfw.wa.gov/fishing/locations/high-lakes/thunder-mtn-1", "elevation": 6427.0, "area": "2.30 acres", "county": "Chelan", "lat": 47.659519, "lon": -121.12398, "starting": false, "overabundant": false}, {"name": "Thunder Mtn 2", "url": "https://wdfw.wa.gov/fishing/locations/high-lakes/thunder-mtn-2", "elevation": 6112.0, "area": "3.30 acres", "county": "Chelan", "lat": 47.656925, "lon": -121.121702, "starting": false, "overabundant": false}, {"name": "Tieton Ranger Pond", "url": "https://wdfw.wa.gov/fishing/locations/high-lakes/tieton-ranger-pond", "elevation": 3270.0, "area": "2.30 acres", "county": "Yakima", "lat": 46.69205, "lon": -121.074446, "starting": false, "overabundant": false}, {"name": "Tiffany", "url": "https://wdfw.wa.gov/fishing/locations/high-lakes/tiffany", "elevation": 6543.0, "area": "17.90 acres", "county": "Okanogan", "lat": 48.689353, "lon": -119.939589, "starting": false, "overabundant": false}, {"name": "Tiffany - Little", "url": "https://wdfw.wa.gov/fishing/locations/high-lakes/tiffany-little", "elevation": 7432.0, "area": "3.50 acres", "county": "Okanogan", "lat": 48.675605, "lon": -119.937001, "starting": false, "overabundant": false}, {"name": "Tinkham Peak", "url": "https://wdfw.wa.gov/fishing/locations/high-lakes/tinkham-peak", "elevation": 4590.0, "area": "0.10 acres", "county": "Kittitas", "lat": 47.349874, "lon": -121.450465, "starting": false, "overabundant": false}, {"name": "Tinkham Peak Pot", "url": "https://wdfw.wa.gov/fishing/locations/high-lakes/tinkham-peak-pot", "elevation": 4577.0, "area": "0.90 acres", "county": "Kittitas", "lat": 47.350401, "lon": -121.449952, "starting": false, "overabundant": false}, {"name": "Titicaed", "url": "https://wdfw.wa.gov/fishing/locations/high-lakes/titicaed", "elevation": 3587.0, "area": "0.90 acres", "county": "King", "lat": 47.727299, "lon": -121.60116, "starting": false, "overabundant": false}, {"name": "Toke Tie Pot Lake (Skamania County)", "url": "https://wdfw.wa.gov/fishing/locations/high-lakes/toke-tie-pot", "elevation": 4591.0, "area": "2.90 acres", "county": "Skamania", "lat": 45.988149, "lon": -121.792008, "starting": false, "overabundant": false}, {"name": "Tom", "url": "https://wdfw.wa.gov/fishing/locations/high-lakes/tom", "elevation": 3353.0, "area": "1.30 acres", "county": "Snohomish", "lat": 47.847998, "lon": -121.476692, "starting": false, "overabundant": false}, {"name": "Tombstone Lake (Skamania County)", "url": "https://wdfw.wa.gov/fishing/locations/high-lakes/tombstone", "elevation": 4559.0, "area": "1.30 acres", "county": "Skamania", "lat": 45.981441, "lon": -121.793344, "starting": false, "overabundant": false}, {"name": "Top", "url": "https://wdfw.wa.gov/fishing/locations/high-lakes/top", "elevation": 4597.0, "area": "7.80 acres", "county": "Chelan", "lat": 47.881704, "lon": -121.149793, "starting": false, "overabundant": false}, {"name": "Top (King County)", "url": "https://wdfw.wa.gov/fishing/locations/high-lakes/top-king", "elevation": 4547.0, "area": "3.60 acres", "county": "King", "lat": 47.65655, "lon": -121.338924, "starting": false, "overabundant": false}, {"name": "Top Lake Pot - SE", "url": "https://wdfw.wa.gov/fishing/locations/high-lakes/top-lake-pot-se", "elevation": 4710.0, "area": "0.70 acres", "county": "King", "lat": 47.6506, "lon": -121.334827, "starting": false, "overabundant": false}, {"name": "Top Lake Pothole", "url": "https://wdfw.wa.gov/fishing/locations/high-lakes/top-lake-pothole", "elevation": 4224.0, "area": "1.00 acres", "county": "King", "lat": 47.655796, "lon": -121.33544, "starting": false, "overabundant": false}, {"name": "Tourmaline", "url": "https://wdfw.wa.gov/fishing/locations/high-lakes/tourmaline", "elevation": 4758.0, "area": "1.90 acres", "county": "King", "lat": 47.570286, "lon": -121.342187, "starting": false, "overabundant": false}, {"name": "Tracy Lake", "url": "https://wdfw.wa.gov/fishing/locations/high-lakes/tracy-lake", "elevation": 3590.0, "area": "0.90 acres", "county": "Mason", "lat": 47.465621, "lon": -123.420717, "starting": false, "overabundant": false}, {"name": "Tradedollar", "url": "https://wdfw.wa.gov/fishing/locations/high-lakes/tradedollar", "elevation": 3584.0, "area": "12.30 acres", "county": "Skamania", "lat": 46.354834, "lon": -122.231807, "starting": false, "overabundant": false}, {"name": "Trap Lake (Chelan County)", "url": "https://wdfw.wa.gov/fishing/locations/high-lakes/trap", "elevation": 5175.0, "area": "12.60 acres", "county": "Chelan", "lat": 47.674429, "lon": -121.12398, "starting": true, "overabundant": false}, {"name": "Triad", "url": "https://wdfw.wa.gov/fishing/locations/high-lakes/triad", "elevation": 6525.0, "area": "12.50 acres", "county": "Snohomish", "lat": 48.112848, "lon": -120.95797, "starting": false, "overabundant": false}, {"name": "Trico", "url": "https://wdfw.wa.gov/fishing/locations/high-lakes/trico", "elevation": 5669.0, "area": "5.10 acres", "county": "King", "lat": 47.59967, "lon": -121.123372, "starting": false, "overabundant": false}, {"name": "Triumph", "url": "https://wdfw.wa.gov/fishing/locations/high-lakes/triumph", "elevation": 3707.0, "area": "4.20 acres", "county": "Whatcom", "lat": 48.679561, "lon": -121.388576, "starting": false, "overabundant": false}, {"name": "Tuckway", "url": "https://wdfw.wa.gov/fishing/locations/high-lakes/tuckway", "elevation": 3868.0, "area": "1.20 acres", "county": "Whatcom", "lat": 48.656836, "lon": -121.791249, "starting": false, "overabundant": false}, {"name": "Tumwater", "url": "https://wdfw.wa.gov/fishing/locations/high-lakes/tumwater", "elevation": 3707.0, "area": "1.80 acres", "county": "King", "lat": 47.631794, "lon": -121.404179, "starting": false, "overabundant": false}, {"name": "Tunnel Cr Pothole", "url": "https://wdfw.wa.gov/fishing/locations/high-lakes/tunnel-cr-pothole", "elevation": 4904.0, "area": "1.00 acres", "county": "King", "lat": 47.725787, "lon": -121.08772, "starting": false, "overabundant": false}, {"name": "Tupso", "url": "https://wdfw.wa.gov/fishing/locations/high-lakes/tupso", "elevation": 4513.0, "area": "3.70 acres", "county": "Skagit", "lat": 48.390946, "lon": -121.461423, "starting": false, "overabundant": false}, {"name": "Twilight", "url": "https://wdfw.wa.gov/fishing/locations/high-lakes/twilight", "elevation": 3580.0, "area": "2.30 acres", "county": "King", "lat": 47.336111, "lon": -121.433672, "starting": false, "overabundant": false}, {"name": "Twin", "url": "https://wdfw.wa.gov/fishing/locations/high-lakes/twin", "elevation": 4674.0, "area": "1.50 acres", "county": "Kittitas", "lat": 47.389208, "lon": -121.338312, "starting": false, "overabundant": false}, {"name": "Twin - Upper (Snohomish County)", "url": "https://wdfw.wa.gov/fishing/locations/high-lakes/twin-upper-snohomish-1", "elevation": 4704.0, "area": "64.50 acres", "county": "Snohomish", "lat": 47.953483, "lon": -121.377547, "starting": false, "overabundant": false}, {"name": "Twin - Upper (Snohomish County)", "url": "https://wdfw.wa.gov/fishing/locations/high-lakes/twin-upper-snohomish", "elevation": 5547.0, "area": "19.70 acres", "county": "Snohomish", "lat": 48.207539, "lon": -121.199232, "starting": false, "overabundant": false}, {"name": "Twin Lks Lower", "url": "https://wdfw.wa.gov/fishing/locations/high-lakes/twin-lks-lower", "elevation": 3104.0, "area": "4.10 acres", "county": "Kittitas", "lat": 47.361651, "lon": -121.437323, "starting": false, "overabundant": false}, {"name": "Twin Lks Upper", "url": "https://wdfw.wa.gov/fishing/locations/high-lakes/twin-lks-upper", "elevation": 3113.0, "area": "1.30 acres", "county": "Kittitas", "lat": 47.362306, "lon": -121.442189, "starting": false, "overabundant": false}, {"name": "Twin Sisters - Big", "url": "https://wdfw.wa.gov/fishing/locations/high-lakes/twin-sisters-big", "elevation": 5157.0, "area": "103.00 acres", "county": "Yakima", "lat": 46.739113, "lon": -121.381703, "starting": true, "overabundant": false}, {"name": "Twin Sisters - Little", "url": "https://wdfw.wa.gov/fishing/locations/high-lakes/twin-sisters-little", "elevation": 5188.0, "area": "40.40 acres", "county": "Yakima", "lat": 46.735167, "lon": -121.369921, "starting": true, "overabundant": false}, {"name": "Two Lakes", "url": "https://wdfw.wa.gov/fishing/locations/high-lakes/two-lakes", "elevation": 5384.0, "area": "2.90 acres", "county": "Yakima", "lat": 46.786483, "lon": -121.447198, "starting": false, "overabundant": false}, {"name": "Two Little - S'Most", "url": "https://wdfw.wa.gov/fishing/locations/high-lakes/two-little-smost", "elevation": 5834.0, "area": "2.40 acres", "county": "Chelan", "lat": 47.932713, "lon": -120.623264, "starting": false, "overabundant": false}, {"name": "Umtux Lake (Skamania County)", "url": "https://wdfw.wa.gov/fishing/locations/high-lakes/umtux-1", "elevation": 4826.0, "area": "1.40 acres", "county": "Skamania", "lat": 45.990511, "lon": -121.804227, "starting": false, "overabundant": false}, {"name": "Unnamed - L28741", "url": "https://wdfw.wa.gov/fishing/locations/high-lakes/unnamed-l28741", "elevation": 6040.0, "area": "1.50 acres", "county": "Chelan", "lat": 47.53217, "lon": -121.028225, "starting": false, "overabundant": false}, {"name": "Unnamed - L28791", "url": "https://wdfw.wa.gov/fishing/locations/high-lakes/unnamed-l28791", "elevation": 6117.0, "area": "0.30 acres", "county": "Chelan", "lat": 47.536925, "lon": -121.043756, "starting": false, "overabundant": false}, {"name": "Unnamed - L28977", "url": "https://wdfw.wa.gov/fishing/locations/high-lakes/unnamed-l28977", "elevation": 3876.0, "area": "1.10 acres", "county": "Yakima", "lat": 46.60987, "lon": -121.098301, "starting": false, "overabundant": false}, {"name": "Unnamed - L29857", "url": "https://wdfw.wa.gov/fishing/locations/high-lakes/unnamed-l29857", "elevation": 5146.0, "area": "1.00 acres", "county": "Yakima", "lat": 46.700595, "lon": -121.35085, "starting": false, "overabundant": false}, {"name": "Unnamed - L30960", "url": "https://wdfw.wa.gov/fishing/locations/high-lakes/unnamed-l30960", "elevation": 3826.0, "area": "0.40 acres", "county": "King", "lat": 47.379839, "lon": -121.451958, "starting": false, "overabundant": false}, {"name": "Unnamed - L31363", "url": "https://wdfw.wa.gov/fishing/locations/high-lakes/unnamed-l31363", "elevation": 3347.0, "area": "0.50 acres", "county": "King", "lat": 47.668821, "lon": -121.529122, "starting": false, "overabundant": false}, {"name": "Unnamed - L31364", "url": "https://wdfw.wa.gov/fishing/locations/high-lakes/unnamed-l31364", "elevation": 4749.0, "area": "0.70 acres", "county": "Snohomish", "lat": 48.130127, "lon": -121.529232, "starting": false, "overabundant": false}, {"name": "Unnamed - L5032", "url": "https://wdfw.wa.gov/fishing/locations/high-lakes/unnamed-l5032", "elevation": 5668.0, "area": "2.00 acres", "county": "Chelan", "lat": 47.664683, "lon": -121.116649, "starting": false, "overabundant": false}, {"name": "Unnamed - L5388", "url": "https://wdfw.wa.gov/fishing/locations/high-lakes/unnamed-l5388", "elevation": 6552.0, "area": "1.10 acres", "county": "Kittitas", "lat": 47.577025, "lon": -121.091774, "starting": false, "overabundant": false}, {"name": "Unnamed - L5389", "url": "https://wdfw.wa.gov/fishing/locations/high-lakes/unnamed-l5389", "elevation": 6467.0, "area": "0.50 acres", "county": "Kittitas", "lat": 47.575097, "lon": -121.090728, "starting": false, "overabundant": false}, {"name": "Unnamed - L7066", "url": "https://wdfw.wa.gov/fishing/locations/high-lakes/unnamed-l7066", "elevation": 3127.0, "area": "1.90 acres", "county": "Lewis", "lat": 46.679898, "lon": -122.473661, "starting": false, "overabundant": false}, {"name": "Unnamed - L7262", "url": "https://wdfw.wa.gov/fishing/locations/high-lakes/unnamed-l7262", "elevation": 2641.0, "area": "1.70 acres", "county": "Skagit", "lat": 48.404009, "lon": -122.130818, "starting": false, "overabundant": false}, {"name": "Unnamed - L8455", "url": "https://wdfw.wa.gov/fishing/locations/high-lakes/unnamed-l8455", "elevation": 2730.0, "area": "3.20 acres", "county": "Lewis", "lat": 46.681417, "lon": -122.456127, "starting": false, "overabundant": false}, {"name": "Unnamed - L8616", "url": "https://wdfw.wa.gov/fishing/locations/high-lakes/unnamed-l8616", "elevation": 2905.0, "area": "1.30 acres", "county": "Lewis", "lat": 46.678731, "lon": -122.455411, "starting": false, "overabundant": false}, {"name": "Unnamed ID3117", "url": "https://wdfw.wa.gov/fishing/locations/high-lakes/unnamed-id3117", "elevation": 3004.0, "area": "0.90 acres", "county": "Skagit", "lat": 48.390423, "lon": -122.106209, "starting": false, "overabundant": false}, {"name": "Unnamed ID654", "url": "https://wdfw.wa.gov/fishing/locations/high-lakes/unnamed-id654", "elevation": 3003.0, "area": "1.90 acres", "county": "Skagit", "lat": 48.390166, "lon": -122.107268, "starting": false, "overabundant": false}, {"name": "Upper (Big) Greider Lake", "url": "https://wdfw.wa.gov/fishing/locations/high-lakes/upper-big-greider-lake", "elevation": 2936.0, "area": "59.00 acres", "county": "Snohomish", "lat": 47.954793, "lon": -121.582547, "starting": true, "overabundant": false}, {"name": "Upper Loch Katrine", "url": "https://wdfw.wa.gov/fishing/locations/high-lakes/upper-loch-katrine", "elevation": 4099.0, "area": "23.40 acres", "county": "King", "lat": 47.62092, "lon": -121.602158, "starting": false, "overabundant": false}, {"name": "Valhalla", "url": "https://wdfw.wa.gov/fishing/locations/high-lakes/valhalla", "elevation": 4834.0, "area": "24.00 acres", "county": "Chelan", "lat": 47.78976, "lon": -121.10084, "starting": true, "overabundant": false}, {"name": "Varden", "url": "https://wdfw.wa.gov/fishing/locations/high-lakes/varden", "elevation": 6191.0, "area": "4.40 acres", "county": "Okanogan", "lat": 48.559215, "lon": -120.539389, "starting": false, "overabundant": false}, {"name": "Venus Lake", "url": "https://wdfw.wa.gov/fishing/locations/high-lakes/venus-upper", "elevation": 4904.0, "area": "21.90 acres", "county": "Skamania", "lat": 46.341542, "lon": -122.153142, "starting": false, "overabundant": false}, {"name": "Vesper", "url": "https://wdfw.wa.gov/fishing/locations/high-lakes/vesper", "elevation": 5028.0, "area": "7.00 acres", "county": "Snohomish", "lat": 48.014327, "lon": -121.508418, "starting": false, "overabundant": false}, {"name": "View", "url": "https://wdfw.wa.gov/fishing/locations/high-lakes/view", "elevation": 5269.0, "area": "2.20 acres", "county": "King", "lat": 47.590632, "lon": -121.283448, "starting": false, "overabundant": false}, {"name": "Wagner", "url": "https://wdfw.wa.gov/fishing/locations/high-lakes/wagner", "elevation": 2994.0, "area": "1.60 acres", "county": "Skagit", "lat": 48.391328, "lon": -122.10217, "starting": false, "overabundant": false}, {"name": "Walupt", "url": "https://wdfw.wa.gov/fishing/locations/high-lakes/walupt", "elevation": 3930.0, "area": "381.60 acres", "county": "Lewis", "lat": 46.417023, "lon": -121.463168, "starting": true, "overabundant": false}, {"name": "Waptus Lake", "url": "https://wdfw.wa.gov/fishing/locations/high-lakes/waptus-lake", "elevation": 2967.0, "area": "255.20 acres", "county": "Kittitas", "lat": 47.50341, "lon": -121.177974, "starting": true, "overabundant": false}, {"name": "Warm", "url": "https://wdfw.wa.gov/fishing/locations/high-lakes/warm", "elevation": 6346.0, "area": "1.10 acres", "county": "Yakima", "lat": 46.476247, "lon": -121.384178, "starting": false, "overabundant": false}, {"name": "Washburn Lake", "url": "https://wdfw.wa.gov/fishing/locations/high-lakes/washburn-lake", "elevation": 3076.0, "area": "13.10 acres", "county": "Okanogan", "lat": 48.84089, "lon": -119.596055, "starting": false, "overabundant": false}, {"name": "Watch Lake (Lewis County)", "url": "https://wdfw.wa.gov/fishing/locations/high-lakes/watch", "elevation": 3563.0, "area": "14.70 acres", "county": "Lewis", "lat": 46.573738, "lon": -121.974776, "starting": false, "overabundant": false}, {"name": "Watson - Lower (Big)", "url": "https://wdfw.wa.gov/fishing/locations/high-lakes/watson-lower-big", "elevation": 4401.0, "area": "47.30 acres", "county": "Whatcom", "lat": 48.667703, "lon": -121.579029, "starting": false, "overabundant": false}, {"name": "Watson - Upper (Little)", "url": "https://wdfw.wa.gov/fishing/locations/high-lakes/watson-upper-little", "elevation": 4415.0, "area": "16.30 acres", "county": "Whatcom", "lat": 48.666193, "lon": -121.590559, "starting": false, "overabundant": false}, {"name": "Wayhut (Boulder)", "url": "https://wdfw.wa.gov/fishing/locations/high-lakes/wayhut-boulder", "elevation": 4387.0, "area": "5.80 acres", "county": "Snohomish", "lat": 47.83636, "lon": -121.355197, "starting": false, "overabundant": false}, {"name": "Weden", "url": "https://wdfw.wa.gov/fishing/locations/high-lakes/weden", "elevation": 4301.0, "area": "5.30 acres", "county": "Snohomish", "lat": 47.976598, "lon": -121.457892, "starting": false, "overabundant": false}, {"name": "West", "url": "https://wdfw.wa.gov/fishing/locations/high-lakes/west", "elevation": 4586.0, "area": "4.10 acres", "county": "Pierce", "lat": 46.818844, "lon": -121.943439, "starting": false, "overabundant": false}, {"name": "West Fork Lake (Lewis County)", "url": "https://wdfw.wa.gov/fishing/locations/high-lakes/west-fork-janelle-lake", "elevation": 3316.0, "area": "5.90 acres", "county": "Lewis", "lat": 46.658288, "lon": -122.32132, "starting": false, "overabundant": false}, {"name": "Whale", "url": "https://wdfw.wa.gov/fishing/locations/high-lakes/whale", "elevation": 4559.0, "area": "45.00 acres", "county": "Skagit", "lat": 48.446676, "lon": -121.291677, "starting": false, "overabundant": false}, {"name": "Wheeler", "url": "https://wdfw.wa.gov/fishing/locations/high-lakes/wheeler", "elevation": 3300.0, "area": "3.00 acres", "county": "Snohomish", "lat": 48.231843, "lon": -121.862311, "starting": false, "overabundant": false}, {"name": "White Chuck", "url": "https://wdfw.wa.gov/fishing/locations/high-lakes/white-chuck", "elevation": 4391.0, "area": "0.20 acres", "county": "Snohomish", "lat": 48.215399, "lon": -121.405788, "starting": false, "overabundant": false}, {"name": "Wildcat", "url": "https://wdfw.wa.gov/fishing/locations/high-lakes/wildcat", "elevation": 5188.0, "area": "1.30 acres", "county": "Yakima", "lat": 46.819239, "lon": -121.432362, "starting": false, "overabundant": false}, {"name": "Wildcat - Lower", "url": "https://wdfw.wa.gov/fishing/locations/high-lakes/wildcat-lower", "elevation": 3904.0, "area": "17.90 acres", "county": "King", "lat": 47.485218, "lon": -121.479713, "starting": false, "overabundant": false}, {"name": "Wildcat - Upper", "url": "https://wdfw.wa.gov/fishing/locations/high-lakes/wildcat-upper", "elevation": 4222.0, "area": "51.50 acres", "county": "King", "lat": 47.485454, "lon": -121.492007, "starting": false, "overabundant": false}, {"name": "Wildcat Pothole - West", "url": "https://wdfw.wa.gov/fishing/locations/high-lakes/wildcat-pothole-west", "elevation": 4071.0, "area": "0.60 acres", "county": "King", "lat": 47.480627, "lon": -121.478453, "starting": false, "overabundant": false}, {"name": "Willame Lake (Lewis County)", "url": "https://wdfw.wa.gov/fishing/locations/high-lakes/willame", "elevation": 4064.0, "area": "4.90 acres", "county": "Lewis", "lat": 46.596194, "lon": -121.804704, "starting": false, "overabundant": false}, {"name": "Williams", "url": "https://wdfw.wa.gov/fishing/locations/high-lakes/williams", "elevation": 6495.0, "area": "7.20 acres", "county": "Okanogan", "lat": 48.371805, "lon": -120.516664, "starting": false, "overabundant": false}, {"name": "Willow", "url": "https://wdfw.wa.gov/fishing/locations/high-lakes/willow", "elevation": 2857.0, "area": "15.20 acres", "county": "Whatcom", "lat": 48.943701, "lon": -121.005234, "starting": false, "overabundant": false}, {"name": "Windom", "url": "https://wdfw.wa.gov/fishing/locations/high-lakes/windom", "elevation": 3543.0, "area": "3.60 acres", "county": "Snohomish", "lat": 48.131515, "lon": -121.542881, "starting": false, "overabundant": false}, {"name": "Windy", "url": "https://wdfw.wa.gov/fishing/locations/high-lakes/windy", "elevation": 6998.0, "area": "1.20 acres", "county": "Chelan", "lat": 47.562951, "lon": -120.867605, "starting": false, "overabundant": false}, {"name": "Windy (King County)", "url": "https://wdfw.wa.gov/fishing/locations/high-lakes/windy-king", "elevation": 4191.0, "area": "5.30 acres", "county": "King", "lat": 47.460391, "lon": -121.502523, "starting": false, "overabundant": false}, {"name": "Wing", "url": "https://wdfw.wa.gov/fishing/locations/high-lakes/wing", "elevation": 6909.0, "area": "13.60 acres", "county": "Skagit", "lat": 48.517609, "lon": -120.80618, "starting": false, "overabundant": false}, {"name": "Wiseman", "url": "https://wdfw.wa.gov/fishing/locations/high-lakes/wiseman", "elevation": 4223.0, "area": "19.40 acres", "county": "Whatcom", "lat": 48.707009, "lon": -121.939209, "starting": false, "overabundant": false}, {"name": "Wiseman - Little", "url": "https://wdfw.wa.gov/fishing/locations/high-lakes/wiseman-little", "elevation": 4438.0, "area": "2.00 acres", "county": "Whatcom", "lat": 48.703116, "lon": -121.948416, "starting": false, "overabundant": false}, {"name": "Wolverine Lake", "url": "https://wdfw.wa.gov/fishing/locations/high-lakes/wolverine-lake", "elevation": 5045.0, "area": "8.50 acres", "county": "Chelan", "lat": 47.650614, "lon": -121.112593, "starting": true, "overabundant": false}, {"name": "Wonder Lake 1", "url": "https://wdfw.wa.gov/fishing/locations/high-lakes/wonder-lake-1", "elevation": 3996.0, "area": "4.70 acres", "county": "Mason", "lat": 47.514466, "lon": -123.452939, "starting": false, "overabundant": false}, {"name": "Wonder Lake 2", "url": "https://wdfw.wa.gov/fishing/locations/high-lakes/wonder-lake-2", "elevation": 3518.0, "area": "1.00 acres", "county": "Mason", "lat": 47.510851, "lon": -123.43883, "starting": false, "overabundant": false}, {"name": "Wood Lake (Skamania County)", "url": "https://wdfw.wa.gov/fishing/locations/high-lakes/wood", "elevation": 4869.0, "area": "9.50 acres", "county": "Skamania", "lat": 46.049157, "lon": -121.786165, "starting": false, "overabundant": false}, {"name": "Wright Lake (Lewis County)", "url": "https://wdfw.wa.gov/fishing/locations/high-lakes/wright", "elevation": 2958.0, "area": "6.90 acres", "county": "Lewis", "lat": 46.493564, "lon": -121.575683, "starting": false, "overabundant": false}, {"name": "Wright Mtn Pot", "url": "https://wdfw.wa.gov/fishing/locations/high-lakes/wright-mtn-pot", "elevation": 4229.0, "area": "0.80 acres", "county": "King", "lat": 47.478461, "lon": -121.474893, "starting": false, "overabundant": false}], "timestamp": "2022-05-23 15:17:06"}