{"lakes": [{"name": "Ann Lake", "url": "https://wdfw.wa.gov/fishing/locations/high-lakes/ann-lake", "elevation": 5480.0, "area": "18.50 acres", "county": "Chelan", "lat": 48.506692, "lon": -120.757152, "starting": true, "overabundant": false}, {"name": "Annette Lake", "url": "https://wdfw.wa.gov/fishing/locations/high-lakes/annette-lake", "elevation": 3624.0, "area": "18.40 acres", "county": "King", "lat": 47.358964, "lon": -121.474328, "starting": true, "overabundant": false}, {"name": "Arbuthnot", "url": "https://wdfw.wa.gov/fishing/locations/high-lakes/arbuthnot", "elevation": 4770.0, "area": "6.90 acres", "county": "Whatcom", "lat": 48.859145, "lon": -121.723004, "starting": true, "overabundant": false}, {"name": "Bear Lake (King County)", "url": "https://wdfw.wa.gov/fishing/locations/high-lakes/bear-lake-king", "elevation": 3614.0, "area": "45.80 acres", "county": "King", "lat": 47.573663, "lon": -121.394876, "starting": true, "overabundant": false}, {"name": "Bear Lake (Yakima County)", "url": "https://wdfw.wa.gov/fishing/locations/high-lakes/bear-lake", "elevation": 4639.0, "area": "3.90 acres", "county": "Yakima", "lat": 46.726766, "lon": -121.019826, "starting": true, "overabundant": false}, {"name": "Bertha May Lake (Lewis County)", "url": "https://wdfw.wa.gov/fishing/locations/high-lakes/bertha-may-lake", "elevation": 4059.0, "area": "19.20 acres", "county": "Lewis", "lat": 46.69847, "lon": -121.936355, "starting": true, "overabundant": false}, {"name": "Big Mosquito Lake", "url": "https://wdfw.wa.gov/fishing/locations/high-lakes/big-mosquito-lake", "elevation": 3896.0, "area": "26.60 acres", "county": "Skamania", "lat": 46.1279, "lon": -121.759193, "starting": true, "overabundant": false}, {"name": "Blue Lake (Lewis County)", "url": "https://wdfw.wa.gov/fishing/locations/high-lakes/blue-lake-lewis", "elevation": 4062.0, "area": "121.70 acres", "county": "Lewis", "lat": 46.39737, "lon": -121.700618, "starting": true, "overabundant": false}, {"name": "Bumping Lake", "url": "https://wdfw.wa.gov/fishing/locations/high-lakes/bumping-lake", "elevation": 3430.0, "area": "1353.50 acres", "county": "Yakima", "lat": 46.846944, "lon": -121.331249, "starting": true, "overabundant": false}, {"name": "Byrne", "url": "https://wdfw.wa.gov/fishing/locations/high-lakes/byrne", "elevation": 5548.0, "area": "48.80 acres", "county": "Snohomish", "lat": 48.111144, "lon": -121.215561, "starting": true, "overabundant": false}, {"name": "Coal Lake", "url": "https://wdfw.wa.gov/fishing/locations/high-lakes/coal-lake", "elevation": 3384.0, "area": "6.60 acres", "county": "Snohomish", "lat": 48.112306, "lon": -121.516638, "starting": true, "overabundant": false}, {"name": "Cooper Lake", "url": "https://wdfw.wa.gov/fishing/locations/high-lakes/cooper-lake", "elevation": 2792.0, "area": "129.40 acres", "county": "Kittitas", "lat": 47.426187, "lon": -121.176924, "starting": true, "overabundant": false}, {"name": "Copper Lake", "url": "https://wdfw.wa.gov/fishing/locations/high-lakes/copper-lake", "elevation": 3965.0, "area": "132.00 acres", "county": "King", "lat": 47.602358, "lon": -121.333052, "starting": true, "overabundant": false}, {"name": "Cora Lake", "url": "https://wdfw.wa.gov/fishing/locations/high-lakes/cora-lake", "elevation": 3834.0, "area": "25.70 acres", "county": "Lewis", "lat": 46.68804, "lon": -121.890534, "starting": true, "overabundant": false}, {"name": "Cougar", "url": "https://wdfw.wa.gov/fishing/locations/high-lakes/cougar", "elevation": 5019.0, "area": "78.40 acres", "county": "Yakima", "lat": 46.812707, "lon": -121.440605, "starting": true, "overabundant": false}, {"name": "Deception Lakes", "url": "https://wdfw.wa.gov/fishing/locations/high-lakes/deception-lakes", "elevation": 5057.0, "area": "18.20 acres", "county": "King", "lat": 47.634804, "lon": -121.139732, "starting": true, "overabundant": false}, {"name": "Deep Lake (Kittitas County)", "url": "https://wdfw.wa.gov/fishing/locations/high-lakes/deep-lake-kittitas", "elevation": 4386.0, "area": "39.90 acres", "county": "Kittitas", "lat": 47.54655, "lon": -121.141979, "starting": true, "overabundant": false}, {"name": "Dog Lake", "url": "https://wdfw.wa.gov/fishing/locations/high-lakes/dog-lake", "elevation": 4211.0, "area": "59.90 acres", "county": "Yakima", "lat": 46.657375, "lon": -121.359731, "starting": true, "overabundant": false}, {"name": "Dorothy Lake", "url": "https://wdfw.wa.gov/fishing/locations/high-lakes/dorothy-lake", "elevation": 3062.0, "area": "260.90 acres", "county": "King", "lat": 47.579806, "lon": -121.38593, "starting": true, "overabundant": false}, {"name": "Fisher Lake", "url": "https://wdfw.wa.gov/fishing/locations/high-lakes/fisher-lake", "elevation": 4767.0, "area": "56.40 acres", "county": "King", "lat": 47.638719, "lon": -121.219739, "starting": true, "overabundant": false}, {"name": "Glacier Lake (King County)", "url": "https://wdfw.wa.gov/fishing/locations/high-lakes/glacier-lake", "elevation": 4810.0, "area": "50.20 acres", "county": "King", "lat": 47.657111, "lon": -121.144188, "starting": true, "overabundant": false}, {"name": "Goose Lake", "url": "https://wdfw.wa.gov/fishing/locations/high-lakes/goose-lake", "elevation": 3110.0, "area": "73.60 acres", "county": "Skamania", "lat": 45.941185, "lon": -121.764446, "starting": true, "overabundant": false}, {"name": "Granite Lake (Lewis County)", "url": "https://wdfw.wa.gov/fishing/locations/high-lakes/granite-lake", "elevation": 4179.0, "area": "26.70 acres", "county": "Lewis", "lat": 46.696858, "lon": -121.926074, "starting": true, "overabundant": false}, {"name": "Hayes", "url": "https://wdfw.wa.gov/fishing/locations/high-lakes/hayes", "elevation": 4782.0, "area": "12.40 acres", "county": "Whatcom", "lat": 48.857338, "lon": -121.721621, "starting": true, "overabundant": false}, {"name": "Heather Lake (Chelan County)", "url": "https://wdfw.wa.gov/fishing/locations/high-lakes/heather-lake", "elevation": 3957.0, "area": "83.80 acres", "county": "Chelan", "lat": 47.855505, "lon": -121.1309, "starting": true, "overabundant": false}, {"name": "Hester Lake", "url": "https://wdfw.wa.gov/fishing/locations/high-lakes/hester-lake", "elevation": 3890.0, "area": "64.80 acres", "county": "King", "lat": 47.508764, "lon": -121.393627, "starting": true, "overabundant": false}, {"name": "Hope", "url": "https://wdfw.wa.gov/fishing/locations/high-lakes/hope", "elevation": 4390.0, "area": "1.40 acres", "county": "Chelan", "lat": 47.699054, "lon": -121.09013, "starting": true, "overabundant": false}, {"name": "Island Lake (Skamania County)", "url": "https://wdfw.wa.gov/fishing/locations/high-lakes/island-skamania1", "elevation": 4824.0, "area": "9.50 acres", "county": "Skamania", "lat": 46.352533, "lon": -122.157965, "starting": true, "overabundant": false}, {"name": "Janus Lake", "url": "https://wdfw.wa.gov/fishing/locations/high-lakes/janus-lake", "elevation": 4150.0, "area": "28.40 acres", "county": "Snohomish", "lat": 47.827248, "lon": -121.094914, "starting": true, "overabundant": false}, {"name": "Joe Lake", "url": "https://wdfw.wa.gov/fishing/locations/high-lakes/joe-lake", "elevation": 4628.0, "area": "28.70 acres", "county": "Kittitas", "lat": 47.467748, "lon": -121.337478, "starting": true, "overabundant": false}, {"name": "Knuppenburg Lake", "url": "https://wdfw.wa.gov/fishing/locations/high-lakes/knuppenburg-lake", "elevation": 4105.0, "area": "2.30 acres", "county": "Lewis", "lat": 46.628678, "lon": -121.41798, "starting": true, "overabundant": false}, {"name": "Lodge Lake", "url": "https://wdfw.wa.gov/fishing/locations/high-lakes/lodge-lake", "elevation": 3130.0, "area": "9.00 acres", "county": "King", "lat": 47.409483, "lon": -121.430161, "starting": true, "overabundant": false}, {"name": "Lost Lake (Chelan County)", "url": "https://wdfw.wa.gov/fishing/locations/high-lakes/lost-lake-chelan", "elevation": 4934.0, "area": "25.90 acres", "county": "Chelan", "lat": 47.814528, "lon": -120.921433, "starting": true, "overabundant": false}, {"name": "Lower Ashland Lake", "url": "https://wdfw.wa.gov/fishing/locations/high-lakes/lower-ashland-lake", "elevation": 2674.0, "area": "10.70 acres", "county": "Snohomish", "lat": 48.027604, "lon": -121.726507, "starting": true, "overabundant": false}, {"name": "Lower Loch Katrine", "url": "https://wdfw.wa.gov/fishing/locations/high-lakes/lower-loch-katrine", "elevation": 2904.0, "area": "49.70 acres", "county": "King", "lat": 47.636739, "lon": -121.606018, "starting": true, "overabundant": false}, {"name": "Lower Tuscohatchie Lake", "url": "https://wdfw.wa.gov/fishing/locations/high-lakes/lower-tuscohatchie-lake", "elevation": 3424.0, "area": "30.60 acres", "county": "King", "lat": 47.438792, "lon": -121.496534, "starting": true, "overabundant": false}, {"name": "Manastash Lake", "url": "https://wdfw.wa.gov/fishing/locations/high-lakes/manastash-lake", "elevation": 5067.0, "area": "28.30 acres", "county": "Kittitas", "lat": 46.996981, "lon": -120.944448, "starting": true, "overabundant": false}, {"name": "Marmot Lake", "url": "https://wdfw.wa.gov/fishing/locations/high-lakes/marmot-lake", "elevation": 4935.0, "area": "128.00 acres", "county": "King", "lat": 47.612094, "lon": -121.188206, "starting": true, "overabundant": false}, {"name": "Marten Lake", "url": "https://wdfw.wa.gov/fishing/locations/high-lakes/marten-lake", "elevation": 2963.0, "area": "37.70 acres", "county": "King", "lat": 47.59268, "lon": -121.51467, "starting": true, "overabundant": false}, {"name": "Mazama", "url": "https://wdfw.wa.gov/fishing/locations/high-lakes/mazama", "elevation": 4708.0, "area": "1.60 acres", "county": "Whatcom", "lat": 48.850366, "lon": -121.722751, "starting": true, "overabundant": false}, {"name": "Newaukum Lake", "url": "https://wdfw.wa.gov/fishing/locations/high-lakes/newaukum-lake", "elevation": 2983.0, "area": "16.80 acres", "county": "Lewis", "lat": 46.664601, "lon": -122.474702, "starting": true, "overabundant": false}, {"name": "Pear", "url": "https://wdfw.wa.gov/fishing/locations/high-lakes/pear", "elevation": 4813.0, "area": "29.30 acres", "county": "Snohomish", "lat": 47.879287, "lon": -121.171111, "starting": true, "overabundant": false}, {"name": "Pete Lake", "url": "https://wdfw.wa.gov/fishing/locations/high-lakes/pete-lake", "elevation": 2984.0, "area": "36.50 acres", "county": "Kittitas", "lat": 47.475873, "lon": -121.235953, "starting": true, "overabundant": false}, {"name": "Philippa", "url": "https://wdfw.wa.gov/fishing/locations/high-lakes/philippa", "elevation": 3350.0, "area": "121.60 acres", "county": "King", "lat": 47.610263, "lon": -121.620167, "starting": true, "overabundant": false}, {"name": "Rainy Lake", "url": "https://wdfw.wa.gov/fishing/locations/high-lakes/rainy-lake", "elevation": 4795.0, "area": "53.10 acres", "county": "Chelan", "lat": 48.501215, "lon": -120.737852, "starting": true, "overabundant": false}, {"name": "Rimrock Lake", "url": "https://wdfw.wa.gov/fishing/locations/high-lakes/rimrock-lake", "elevation": 2926.0, "area": "2546.30 acres", "county": "Yakima", "lat": 46.63891, "lon": -121.159766, "starting": true, "overabundant": false}, {"name": "Rockdale Lake", "url": "https://wdfw.wa.gov/fishing/locations/high-lakes/rockdale-lake", "elevation": 3548.0, "area": "2.80 acres", "county": "King", "lat": 47.389713, "lon": -121.430084, "starting": true, "overabundant": false}, {"name": "Scatter Lake", "url": "https://wdfw.wa.gov/fishing/locations/high-lakes/scatter-lake", "elevation": 7052.0, "area": "6.90 acres", "county": "Okanogan", "lat": 48.470841, "lon": -120.517377, "starting": true, "overabundant": false}, {"name": "Schaefer Lake", "url": "https://wdfw.wa.gov/fishing/locations/high-lakes/schaefer-lake", "elevation": 5135.0, "area": "80.90 acres", "county": "Chelan", "lat": 47.962722, "lon": -120.84261, "starting": true, "overabundant": false}, {"name": "Serene", "url": "https://wdfw.wa.gov/fishing/locations/high-lakes/serene", "elevation": 2525.0, "area": "49.90 acres", "county": "Snohomish", "lat": 47.781821, "lon": -121.570379, "starting": true, "overabundant": false}, {"name": "Slide Lake", "url": "https://wdfw.wa.gov/fishing/locations/high-lakes/slide-lake", "elevation": 3114.0, "area": "30.60 acres", "county": "Skagit", "lat": 48.43071, "lon": -121.348826, "starting": true, "overabundant": false}, {"name": "Snoqualmie Lake", "url": "https://wdfw.wa.gov/fishing/locations/high-lakes/snoqualmie-lake", "elevation": 3151.0, "area": "123.60 acres", "county": "King", "lat": 47.566558, "lon": -121.412831, "starting": true, "overabundant": false}, {"name": "Snow Lake (King County)", "url": "https://wdfw.wa.gov/fishing/locations/high-lakes/snow-lake-king", "elevation": 4020.0, "area": "152.90 acres", "county": "King", "lat": 47.467698, "lon": -121.456444, "starting": true, "overabundant": false}, {"name": "Spectacle Lake", "url": "https://wdfw.wa.gov/fishing/locations/high-lakes/spectacle-lake", "elevation": 4264.0, "area": "77.80 acres", "county": "Kittitas", "lat": 47.461903, "lon": -121.280689, "starting": true, "overabundant": false}, {"name": "Square", "url": "https://wdfw.wa.gov/fishing/locations/high-lakes/square", "elevation": 4994.0, "area": "73.30 acres", "county": "Chelan", "lat": 47.646913, "lon": -121.120015, "starting": true, "overabundant": false}, {"name": "Stirrup Lake", "url": "https://wdfw.wa.gov/fishing/locations/high-lakes/stirrup-lake", "elevation": 3550.0, "area": "8.90 acres", "county": "Kittitas", "lat": 47.295299, "lon": -121.424478, "starting": true, "overabundant": false}, {"name": "Summit Lake (Pierce County)", "url": "https://wdfw.wa.gov/fishing/locations/high-lakes/summit-lake-pierce", "elevation": 5443.0, "area": "21.50 acres", "county": "Pierce", "lat": 47.039674, "lon": -121.831477, "starting": true, "overabundant": false}, {"name": "Surprise Lake (King County)", "url": "https://wdfw.wa.gov/fishing/locations/high-lakes/surprise-lake", "elevation": 4512.0, "area": "22.60 acres", "county": "King", "lat": 47.66798, "lon": -121.140727, "starting": true, "overabundant": false}, {"name": "Swamp Lake", "url": "https://wdfw.wa.gov/fishing/locations/high-lakes/swamp-lake", "elevation": 4799.0, "area": "50.50 acres", "county": "Yakima", "lat": 46.833117, "lon": -121.433422, "starting": true, "overabundant": false}, {"name": "Trap Lake (Chelan County)", "url": "https://wdfw.wa.gov/fishing/locations/high-lakes/trap", "elevation": 5175.0, "area": "12.60 acres", "county": "Chelan", "lat": 47.674429, "lon": -121.12398, "starting": true, "overabundant": false}, {"name": "Twin Sisters - Big", "url": "https://wdfw.wa.gov/fishing/locations/high-lakes/twin-sisters-big", "elevation": 5157.0, "area": "103.00 acres", "county": "Yakima", "lat": 46.739113, "lon": -121.381703, "starting": true, "overabundant": false}, {"name": "Twin Sisters - Little", "url": "https://wdfw.wa.gov/fishing/locations/high-lakes/twin-sisters-little", "elevation": 5188.0, "area": "40.40 acres", "county": "Yakima", "lat": 46.735167, "lon": -121.369921, "starting": true, "overabundant": false}, {"name": "Upper (Big) Greider Lake", "url": "https://wdfw.wa.gov/fishing/locations/high-lakes/upper-big-greider-lake", "elevation": 2936.0, "area": "59.00 acres", "county": "Snohomish", "lat": 47.954793, "lon": -121.582547, "starting": true, "overabundant": false}, {"name": "Valhalla", "url": "https://wdfw.wa.gov/fishing/locations/high-lakes/valhalla", "elevation": 4834.0, "area": "24.00 acres", "county": "Chelan", "lat": 47.78976, "lon": -121.10084, "starting": true, "overabundant": false}, {"name": "Walupt", "url": "https://wdfw.wa.gov/fishing/locations/high-lakes/walupt", "elevation": 3930.0, "area": "381.60 acres", "county": "Lewis", "lat": 46.417023, "lon": -121.463168, "starting": true, "overabundant": false}, {"name": "Waptus Lake", "url": "https://wdfw.wa.gov/fishing/locations/high-lakes/waptus-lake", "elevation": 2967.0, "area": "255.20 acres", "county": "Kittitas", "lat": 47.50341, "lon": -121.177974, "starting": true, "overabundant": false}, {"name": "Wolverine Lake", "url": "https://wdfw.wa.gov/fishing/locations/high-lakes/wolverine-lake", "elevation": 5045.0, "area": "8.50 acres", "county": "Chelan", "lat": 47.650614, "lon": -121.112593, "starting": true, "overabundant": false}], "timestamp": "2022-05-23 15:17:06"}